SALE TYPE,SOLD DATE,PROPERTY TYPE,ADDRESS,CITY,STATE OR PROVINCE,ZIP OR POSTAL CODE,PRICE,BEDS,BATHS,LOCATION,SQUARE FEET,LOT SIZE,YEAR BUILT,DAYS ON MARKET,$/SQUARE FEET,HOA/MONTH,STATUS,NEXT OPEN HOUSE START TIME,NEXT OPEN HOUSE END TIME,URL,SOURCE,MLS#,FAVORITE,INTERESTED,LATITUDE,LONGITUDE,Description
PAST SALE,July-7-2023,Condo/Co-op,9500 Rainier Ave S #103,Seattle,WA,98118.0,469000,2,1.5,Dunlap,904,,1967.0,,519,624.0,Sold,,,https://www.redfin.com/WA/Seattle/9500-Rainier-Ave-S-98118/unit-103/home/19859,NWMLS as Distributed by MLS Grid,2137854.0,N,Y,47.5212626,-122.2612942,Skipped after 3 retries
PAST SALE,October-26-2023,Single Family Residential,9370 57th Ave S,Seattle,WA,98118.0,540000,3,1.5,Rainier Beach,1130,5250.0,1951.0,,478,,Sold,,,https://www.redfin.com/WA/Seattle/9370-57th-Ave-S-98118/home/175968,NWMLS as Distributed by MLS Grid,2175686.0,N,Y,47.5169371,-122.2613778,Skipped after 3 retries
PAST SALE,July-19-2023,Single Family Residential,8411 48th Ave S,Seattle,WA,98118.0,670000,3,2.0,Dunlap,1170,5450.0,1902.0,,573,,Sold,,,https://www.redfin.com/WA/Seattle/8411-48th-Ave-S-98118/home/174912,NWMLS as Distributed by MLS Grid,2077615.0,N,Y,47.5275812,-122.2731714,Skipped after 3 retries
PAST SALE,April-4-2023,Townhouse,5026 35th Ave S,Seattle,WA,98118.0,785000,3,3.0,Columbia City,1610,1158.0,2016.0,,488,,Sold,,,https://www.redfin.com/WA/Seattle/5026-35th-Ave-S-98118/home/109084155,NWMLS as Distributed by MLS Grid,2044325.0,N,Y,47.5563713,-122.2888425,Skipped after 3 retries
PAST SALE,May-22-2023,Townhouse,4843 S Chicago St,Seattle,WA,98118.0,499000,2,2.0,Brighton,1100,1060.0,2013.0,,454,20.0,Sold,,,https://www.redfin.com/WA/Seattle/4843-S-Chicago-St-98118/home/52400512,NWMLS as Distributed by MLS Grid,2060518.0,N,Y,47.5323993,-122.270845,Skipped after 3 retries
PAST SALE,July-28-2023,Single Family Residential,3947 S Warsaw St,Seattle,WA,98118.0,550000,2,2.0,Brighton,1060,5000.0,1947.0,,519,,Sold,,,https://www.redfin.com/WA/Seattle/3947-S-Warsaw-St-98118/home/173524,NWMLS as Distributed by MLS Grid,2077259.0,N,Y,47.5429869,-122.2812495,Skipped after 3 retries
PAST SALE,June-5-2023,Single Family Residential,4117 34th Ave S,Seattle,WA,98118.0,900000,3,2.0,Columbia City,1230,4500.0,1905.0,,732,,Sold,,,https://www.redfin.com/WA/Seattle/4117-34th-Ave-S-98118/home/172411,NWMLS as Distributed by MLS Grid,2051925.0,N,Y,47.5656357,-122.2911937,Skipped after 3 retries
PAST SALE,July-17-2023,Single Family Residential,3304 S Holly Pl,Seattle,WA,98118.0,515000,2,1.5,Holly Park,1250,2208.0,2004.0,,412,400.0,Sold,,,https://www.redfin.com/WA/Seattle/3304-S-Holly-Pl-98118/home/18662292,NWMLS as Distributed by MLS Grid,2073519.0,N,Y,47.5423321,-122.2898524,Skipped after 3 retries
PAST SALE,January-12-2023,Single Family Residential,4827 S Lucile St,Seattle,WA,98118.0,1300000,3,3.5,Seward Park,2520,3090.0,2012.0,,516,,Sold,,,https://www.redfin.com/WA/Seattle/4827-S-Lucile-St-98118/home/2101317,NWMLS as Distributed by MLS Grid,2017753.0,N,Y,47.5524259,-122.2713855,Skipped after 3 retries
PAST SALE,May-25-2023,Townhouse,4921 39th Ave S,Seattle,WA,98118.0,620000,1,1.5,Columbia City,1200,653.0,2007.0,,517,,Sold,,,https://www.redfin.com/WA/Seattle/4921-39th-Ave-S-98118/home/12318066,NWMLS as Distributed by MLS Grid,2044312.0,N,Y,47.5573978,-122.2838586,Skipped after 3 retries
PAST SALE,September-28-2023,Single Family Residential,4522 50th Ave S,Seattle,WA,98118.0,903000,3,3.0,Seward Park,2320,4800.0,1964.0,,389,,Sold,,,https://www.redfin.com/WA/Seattle/4522-50th-Ave-S-98118/home/489613,NWMLS as Distributed by MLS Grid,2142321.0,N,Y,47.5622085,-122.2704208,Skipped after 3 retries
PAST SALE,July-26-2023,Townhouse,5956 36th Ave S Unit D,Seattle,WA,98118.0,556000,2,2.0,Beacon Hill,1160,1010.0,2018.0,,479,,Sold,,,https://www.redfin.com/WA/Seattle/5956-36th-Ave-S-98118/unit-D/home/170476061,NWMLS as Distributed by MLS Grid,2048031.0,N,Y,47.5482565,-122.2874989,Skipped after 3 retries
PAST SALE,June-30-2023,Townhouse,4087 Letitia Ave S Unit D,Seattle,WA,98118.0,897000,3,3.5,Columbia City,1822,1503.0,2023.0,,492,,Sold,,,https://www.redfin.com/WA/Seattle/4087-Letitia-Ave-S-98118/unit-D/home/185882936,NWMLS as Distributed by MLS Grid,2131292.0,N,Y,47.5657984,-122.2901302,Skipped after 3 retries
PAST SALE,,Single Family Residential,3869 Rainier Ave S,Seattle,WA,98118.0,360000,1,1.0,,500,2976.0,1906.0,,720,,,,,https://www.redfin.com/WA/Seattle/3869-Rainier-Ave-S-98118/home/172383,,,N,Y,47.5680261,-122.2897125,Skipped after 3 retries
PAST SALE,April-28-2023,Townhouse,9320 Renton Ave S,Seattle,WA,98118.0,525000,2,2.0,Upper Rainier Beach,1095,6741.0,2022.0,,479,,Sold,,,https://www.redfin.com/WA/Seattle/9320-Renton-Ave-S-98118/home/180541820,NWMLS as Distributed by MLS Grid,2072878.0,N,Y,47.5185331,-122.2709396,Skipped after 3 retries
PAST SALE,May-15-2023,Townhouse,4743 35th Ave S,Seattle,WA,98118.0,850000,3,3.0,Columbia City,1540,1373.0,2016.0,,552,,Sold,,,https://www.redfin.com/WA/Seattle/4743-35th-Ave-S-98118/home/109083142,NWMLS as Distributed by MLS Grid,2068710.0,N,Y,47.5596176,-122.289172,Skipped after 3 retries
PAST SALE,April-5-2023,Single Family Residential,4127 48th Ave S,Seattle,WA,98118.0,715000,1,1.0,Lakewood,1120,7200.0,1947.0,,638,,Sold,,,https://www.redfin.com/WA/Seattle/4127-48th-Ave-S-98118/home/488615,NWMLS as Distributed by MLS Grid,2052899.0,N,Y,47.5656227,-122.2735667,Skipped after 3 retries
PAST SALE,,Single Family Residential,5714 39th Ave S,Seattle,WA,98118.0,530000,1,1.0,,820,5100.0,1909.0,,646,,,,,https://www.redfin.com/WA/Seattle/5714-39th-Ave-S-98118/home/173747,,,N,Y,47.5507542,-122.2831885,Skipped after 3 retries
PAST SALE,,Single Family Residential,3934B S Edmunds St Unit B,Seattle,WA,98118.0,580000,2,1.0,,1370,6600.0,1914.0,,423,,,,,https://www.redfin.com/WA/Seattle/3934B-S-Edmunds-St-98118/unit-B/home/491707,,,N,Y,47.5588324,-122.2819699,Skipped after 3 retries
PAST SALE,December-13-2022,Townhouse,4728 38th Ave S,Seattle,WA,98118.0,839950,3,2.5,Columbia City,1563,1950.0,2022.0,,537,0.0,Sold,,,https://www.redfin.com/WA/Seattle/4728-38th-Ave-S-98118/home/181074194,NWMLS as Distributed by MLS Grid,1983794.0,N,Y,47.559968,-122.284153,Skipped after 3 retries
PAST SALE,,Single Family Residential,4215 Letitia Ave S,Seattle,WA,98118.0,464100,2,1.0,,580,3000.0,1915.0,,800,,,,,https://www.redfin.com/WA/Seattle/4215-Letitia-Ave-S-98118/home/172186,,,N,Y,47.5651105,-122.2900092,Skipped after 3 retries
PAST SALE,May-15-2023,Single Family Residential,5910 51st Ave S,Seattle,WA,98118.0,670000,3,1.0,Brighton,1230,5460.0,1953.0,,545,,Sold,,,https://www.redfin.com/WA/Seattle/5910-51st-Ave-S-98118/home/490105,NWMLS as Distributed by MLS Grid,2068724.0,N,Y,47.5492708,-122.2696959,Skipped after 3 retries
PAST SALE,,Single Family Residential,4853 S Findlay St,Seattle,WA,98118.0,383000,3,1.5,,1020,5150.0,1905.0,,375,,,,,https://www.redfin.com/WA/Seattle/4853-S-Findlay-St-98118/home/493008,,,N,Y,47.5516633,-122.2703446,Skipped after 3 retries
PAST SALE,March-24-2023,Townhouse,7148 44th Ave S,Seattle,WA,98118.0,739000,3,2.5,Brighton,1538,1233.0,2023.0,,480,,Sold,,,https://www.redfin.com/WA/Seattle/7148-44th-Ave-S-98118/home/184695369,NWMLS as Distributed by MLS Grid,2044292.0,N,Y,47.5377265,-122.2776521,Skipped after 3 retries
PAST SALE,May-26-2023,Townhouse,4722 F 38th Ave S,Seattle,WA,98118.0,960000,3,2.5,Columbia City,1822,845.0,2023.0,,527,1.0,Sold,,,https://www.redfin.com/WA/Seattle/4722F-38th-Ave-S-98118/home/185584791,NWMLS as Distributed by MLS Grid,2054077.0,N,Y,47.55999,-122.284375,Skipped after 3 retries
PAST SALE,July-7-2023,Single Family Residential,6712 42nd Ave S,Seattle,WA,98118.0,300000,2,1.0,Seattle,1400,3960.0,1911.0,,214,,Sold,,,https://www.redfin.com/WA/Seattle/6712-42nd-Ave-S-98118/home/173115,NWMLS as Distributed by MLS Grid,2138141.0,N,Y,47.542016,-122.2805383,Skipped after 3 retries
PAST SALE,,Single Family Residential,3929 S Burns St,Seattle,WA,98118.0,759500,3,2.5,,2410,6250.0,1952.0,,315,,,,,https://www.redfin.com/WA/Seattle/3929-S-Burns-St-98118/home/480847,,,N,Y,47.5163166,-122.2829059,Skipped after 3 retries
PAST SALE,July-28-2023,Single Family Residential,5116 S Brighton St,Seattle,WA,98118.0,643000,3,1.0,Seward Park,1220,6150.0,1945.0,,527,,Sold,,,https://www.redfin.com/WA/Seattle/5116-S-Brighton-St-98118/home/491671,NWMLS as Distributed by MLS Grid,2147626.0,N,Y,47.5418538,-122.2690911,Skipped after 3 retries
PAST SALE,May-11-2023,Townhouse,9314 Renton Ave S,Seattle,WA,98118.0,589000,3,2.0,Upper Rainier Beach,1395,6741.0,2022.0,,422,,Sold,,,https://www.redfin.com/WA/Seattle/9316-Renton-Ave-S-98118/unit-B/home/176409,NWMLS as Distributed by MLS Grid,2072869.0,N,Y,47.5185428,-122.2709555,Skipped after 3 retries
PAST SALE,October-2-2023,Single Family Residential,4622 S Lucile St,Seattle,WA,98118.0,1005000,2,2.0,Hillman City,1520,5665.0,1908.0,,661,,Sold,,,https://www.redfin.com/WA/Seattle/4622-S-Lucile-St-98118/home/492556,NWMLS as Distributed by MLS Grid,2168459.0,N,Y,47.5528432,-122.2743737,Skipped after 3 retries
PAST SALE,February-16-2023,Single Family Residential,4825 S Findlay St,Seattle,WA,98118.0,800000,3,1.0,Hillman City,1060,4635.0,1905.0,,755,,Sold,,,https://www.redfin.com/WA/Seattle/4825-S-Findlay-St-98118/home/491858,NWMLS as Distributed by MLS Grid,2036874.0,N,Y,47.5517396,-122.2714952,Skipped after 3 retries
PAST SALE,August-9-2023,Townhouse,4444 33rd Ave S,Seattle,WA,98118.0,679000,2,2.5,Columbia City,1180,1278.0,2023.0,,575,42.0,Sold,,,https://www.redfin.com/WA/Seattle/4444-33rd-Ave-S-98118/home/182029095,NWMLS as Distributed by MLS Grid,2137261.0,N,Y,47.5632968,-122.2911013,Skipped after 3 retries
PAST SALE,July-25-2023,Single Family Residential,6509 57th Ave S,Seattle,WA,98118.0,783717,2,2.0,Seward Park,1106,1.0,2023.0,,709,18.0,Sold,,,https://www.redfin.com/WA/Seattle/6509-57th-Ave-S-98118/home/186232379,NWMLS as Distributed by MLS Grid,2144468.0,N,Y,47.5438301,-122.2622094,Skipped after 3 retries
PAST SALE,March-31-2023,Single Family Residential,4711 A S Graham St,Seattle,WA,98118.0,600000,3,3.0,Brighton,2330,8337.0,1985.0,,258,,Sold,,,https://www.redfin.com/WA/Seattle/4711-S-Graham-St-98118/home/491733,NWMLS as Distributed by MLS Grid,2056398.0,N,Y,47.5455659,-122.2727719,Skipped after 3 retries
PAST SALE,September-18-2023,Single Family Residential,5546 S Holly St,Seattle,WA,98118.0,1600000,3,3.0,Seward Park,2980,7000.0,1957.0,,537,,Sold,,,https://www.redfin.com/WA/Seattle/5546-S-Holly-St-98118/home/490692,NWMLS as Distributed by MLS Grid,2163092.0,N,Y,47.5426185,-122.2624459,Skipped after 3 retries
PAST SALE,July-31-2023,Single Family Residential,4214 Morgan St,Seattle,WA,98118.0,510000,2,1.0,Brighton,640,8442.0,1926.0,,797,,Sold,,,https://www.redfin.com/WA/Seattle/4214-S-Morgan-St-98118/home/172879,NWMLS as Distributed by MLS Grid,2146072.0,N,Y,47.5444402,-122.2802641,Skipped after 3 retries
PAST SALE,March-31-2023,Single Family Residential,4514 S Mead St,Seattle,WA,98118.0,655500,2,1.0,Hillman City,820,3090.0,1910.0,,799,,Sold,,,https://www.redfin.com/WA/Seattle/4514-S-Mead-St-98118/home/492807,NWMLS as Distributed by MLS Grid,2051492.0,N,Y,47.5506291,-122.276521,Skipped after 3 retries
PAST SALE,March-20-2023,Single Family Residential,5119 S Brandon St,Seattle,WA,98118.0,495000,2,1.0,Seward Park,840,5127.0,1912.0,,589,,Sold,,,https://www.redfin.com/WA/Seattle/5119-S-Brandon-St-98118/home/492468,NWMLS as Distributed by MLS Grid,2132999.0,N,Y,47.5531221,-122.2690371,Skipped after 3 retries
PAST SALE,April-14-2023,Single Family Residential,7164 44th Ave S,Seattle,WA,98118.0,729950,3,2.5,Brighton,1543,1254.0,2023.0,,473,,Sold,,,https://www.redfin.com/WA/Seattle/7164-44th-Ave-S-98118/home/184400665,NWMLS as Distributed by MLS Grid,2037712.0,N,Y,47.5375138,-122.2778063,Skipped after 3 retries
PAST SALE,March-8-2023,Single Family Residential,7168 44th Ave S,Seattle,WA,98118.0,720000,3,2.5,Brighton,1543,1156.0,2023.0,,467,,Sold,,,https://www.redfin.com/WA/Seattle/7168-44th-Ave-S-98118/home/184159271,NWMLS as Distributed by MLS Grid,2033913.0,N,Y,47.5374974,-122.2780249,Skipped after 3 retries
PAST SALE,November-21-2022,Condo/Co-op,3932 S Edmunds St Unit B,Seattle,WA,98118.0,612500,2,2.5,Columbia City,840,897.0,2022.0,,729,260.0,Sold,,,https://www.redfin.com/WA/Seattle/3932-S-Edmunds-St-98118/unit-B/home/182456330,NWMLS as Distributed by MLS Grid,2010428.0,N,Y,47.5588436,-122.2820336,Skipped after 3 retries
PAST SALE,October-23-2023,Single Family Residential,4425 Cascadia Avenue South,Seattle,WA,98118.0,1200000,1,3.5,Seattle,2000,2000.0,2007.0,,600,,Sold,,,https://www.redfin.com/WA/Seattle/4425-Cascadia-Ave-S-98118/home/491211,NWMLS as Distributed by MLS Grid,2174526.0,N,Y,47.5633003,-122.2831246,Skipped after 3 retries
PAST SALE,,Condo/Co-op,3240 S Edmunds St Unit A,Seattle,WA,98118.0,553000,2,2.5,,1045,,2007.0,,529,,,,,https://www.redfin.com/WA/Seattle/3240-S-Edmunds-St-98118/unit-A/home/12538139,,,N,Y,47.558861,-122.289671,Skipped after 3 retries
PAST SALE,December-7-2022,Single Family Residential,7977 46th Ave S,Seattle,WA,98118.0,250000,2,1.0,Dunlap,770,8604.0,1912.0,,325,,Sold,,,https://www.redfin.com/WA/Seattle/7977-46th-Ave-S-98118/home/174547,NWMLS as Distributed by MLS Grid,2021542.0,N,Y,47.5293574,-122.2751241,Skipped after 3 retries
PAST SALE,October-27-2023,Townhouse,7508 43rd Ave S Unit A,Seattle,WA,98118.0,569950,2,2.0,Brighton,1147,1.0,2022.0,,497,44.0,Sold,,,https://www.redfin.com/WA/Seattle/7508-43rd-Ave-S-98118/unit-A/home/183983515,NWMLS as Distributed by MLS Grid,2157285.0,N,Y,47.5349042,-122.2789657,Skipped after 3 retries
PAST SALE,April-28-2023,Single Family Residential,3518 S Holden St,Seattle,WA,98118.0,600000,3,1.5,Beacon Hill,1690,5500.0,1965.0,,355,,Sold,,,https://www.redfin.com/WA/Seattle/3518-S-Holden-St-98118/home/480815,NWMLS as Distributed by MLS Grid,2050014.0,N,Y,47.5339311,-122.2873492,Skipped after 3 retries
PAST SALE,August-30-2023,Single Family Residential,9912 59th Ave S,Seattle,WA,98118.0,515000,3,1.0,Upper Rainier Beach,1330,5250.0,1941.0,,387,,Sold,,,https://www.redfin.com/WA/Seattle/9912-59th-Ave-S-98118/home/176209,NWMLS as Distributed by MLS Grid,2145695.0,N,Y,47.5119619,-122.2591356,Skipped after 3 retries
PAST SALE,June-22-2023,Townhouse,4087 Letitia Ave S Unit F,Seattle,WA,98118.0,849950,3,3.5,Columbia City,1829,2036.0,2023.0,,465,,Sold,,,https://www.redfin.com/WA/Seattle/4087-Letitia-Ave-S-98118/unit-F/home/185437395,NWMLS as Distributed by MLS Grid,2069149.0,N,Y,47.5657936,-122.2901374,Skipped after 3 retries
PAST SALE,September-29-2023,Townhouse,4108 37th Ave S Unit B,Seattle,WA,98118.0,535000,2,1.5,Genesee,1180,741.0,2008.0,,453,,Sold,,,https://www.redfin.com/WA/Seattle/4108-37th-Ave-S-98118/unit-B/home/17382915,NWMLS as Distributed by MLS Grid,2158315.0,N,Y,47.5658337,-122.2856727,Skipped after 3 retries
PAST SALE,August-3-2023,Townhouse,7508 43rd Ave S Unit D,Seattle,WA,98118.0,570000,2,2.0,Brighton,1147,1.0,2022.0,,497,45.0,Sold,,,https://www.redfin.com/WA/Seattle/7508-43rd-Ave-S-98118/unit-D/home/183983518,NWMLS as Distributed by MLS Grid,2142960.0,N,Y,47.5349042,-122.2789657,Skipped after 3 retries
PAST SALE,August-31-2023,Single Family Residential,4424 S Holly St,Seattle,WA,98188.0,560000,2,1.0,Brighton,1620,7620.0,1950.0,,346,,Sold,,,https://www.redfin.com/WA/Seattle/4424-S-Holly-St-98118/home/173497,NWMLS as Distributed by MLS Grid,2146472.0,N,Y,47.5426803,-122.2769598,Skipped after 3 retries
PAST SALE,April-27-2023,Single Family Residential,6204 44th Ave S,Seattle,WA,98118.0,765000,2,2.0,Columbia City,1430,4000.0,1919.0,,535,,Sold,,,https://www.redfin.com/WA/Seattle/6204-44th-Ave-S-98118/home/173304,NWMLS as Distributed by MLS Grid,2050250.0,N,Y,47.5465378,-122.2778316,Skipped after 3 retries
PAST SALE,June-13-2023,Condo/Co-op,7637 46th Ave S Unit A,Seattle,WA,98118.0,535000,2,2.5,Rainier Valley,950,1181.0,2023.0,,563,258.0,Sold,,,https://www.redfin.com/WA/Seattle/7637-46th-Ave-S-98118/unit-A/home/184671450,NWMLS as Distributed by MLS Grid,2066218.0,N,Y,47.5336264,-122.2757347,Skipped after 3 retries
PAST SALE,April-21-2023,Townhouse,7512 43rd Ave S Unit C,Seattle,WA,98118.0,549950,2,1.0,Brighton,1139,1.0,2022.0,,483,45.0,Sold,,,https://www.redfin.com/WA/Seattle/7512-43rd-Ave-S-98118/unit-C/home/184583047,NWMLS as Distributed by MLS Grid,2040714.0,N,Y,47.5347855,-122.2790404,Skipped after 3 retries
PAST SALE,February-23-2023,Single Family Residential,4243 S Mead St,Seattle,WA,98118.0,649000,2,2.0,Hillman City,1000,3090.0,1912.0,,649,,Sold,,,https://www.redfin.com/WA/Seattle/4243-S-Mead-St-98118/home/173137,NWMLS as Distributed by MLS Grid,2026926.0,N,Y,47.5502048,-122.2789228,Skipped after 3 retries
PAST SALE,February-24-2023,Single Family Residential,7152 44th Ave S,Seattle,WA,98118.0,830500,3,3.0,Brighton,1731,1683.0,2022.0,,480,,Sold,,,https://www.redfin.com/WA/Seattle/7152-44th-Ave-S-98118/home/182598452,NWMLS as Distributed by MLS Grid,2013152.0,N,Y,47.5375729,-122.278027,Skipped after 3 retries
PAST SALE,August-22-2023,Single Family Residential,9748 60th Ave S,Seattle,WA,98118.0,719950,3,2.0,Upper Rainier Beach,1310,5650.0,1950.0,,550,,Sold,,,https://www.redfin.com/WA/Seattle/9748-60th-Ave-S-98118/home/176115,NWMLS as Distributed by MLS Grid,2143742.0,N,Y,47.513796,-122.257877,Skipped after 3 retries
PAST SALE,June-28-2023,Townhouse,3553 S Ferdinand St,Seattle,WA,98118.0,826000,3,2.0,Columbia City,1470,965.0,2020.0,,562,,Sold,,,https://www.redfin.com/WA/Seattle/3553-S-Ferdinand-St-98118/home/173652171,NWMLS as Distributed by MLS Grid,2074707.0,N,Y,47.557682,-122.2865772,Skipped after 3 retries
PAST SALE,April-7-2023,Single Family Residential,4535 47th Ave S,Seattle,WA,98118.0,1250000,3,2.5,Genesee,2260,7200.0,1993.0,,553,,Sold,,,https://www.redfin.com/WA/Seattle/4535-47th-Ave-S-98118/home/491942,NWMLS as Distributed by MLS Grid,2041031.0,N,Y,47.5619395,-122.2749805,Skipped after 3 retries
PAST SALE,April-28-2023,Townhouse,3319 S Mead St,Seattle,WA,98118.0,510000,2,1.5,Beacon Hill,1100,1431.0,2001.0,,464,10.0,Sold,,,https://www.redfin.com/WA/Seattle/3319-S-Mead-St-98118/home/479638,NWMLS as Distributed by MLS Grid,2047644.0,N,Y,47.5502241,-122.2896277,Skipped after 3 retries
PAST SALE,April-7-2023,Townhouse,7154 44th Ave S,Seattle,WA,98118.0,657500,3,3.0,Brighton,1317,931.0,2023.0,,499,,Sold,,,https://www.redfin.com/WA/Seattle/7154-44th-Ave-S-98118/home/184661450,NWMLS as Distributed by MLS Grid,2042375.0,N,Y,47.5375741,-122.2775276,Skipped after 3 retries
PAST SALE,March-6-2023,Single Family Residential,9767 Arrowsmith Ave S,Seattle,WA,98118.0,950000,3,1.0,Upper Rainier Beach,3150,5650.0,1919.0,,302,,Sold,,,https://www.redfin.com/WA/Seattle/9767-Arrowsmith-Ave-S-98118/home/177602,NWMLS as Distributed by MLS Grid,2035411.0,N,Y,47.514277,-122.2539443,Skipped after 3 retries
PAST SALE,,Condo/Co-op,9500 Rainier Ave S #102,Seattle,WA,98118.0,260356,1,1.0,,657,,1967.0,,396,,,,,https://www.redfin.com/WA/Seattle/9500-Rainier-Ave-S-98118/unit-102/home/19858,,,N,Y,47.5212626,-122.2612942,Skipped after 3 retries
PAST SALE,October-19-2023,Single Family Residential,3523 S Dawson St,Seattle,WA,98118.0,775000,3,1.0,Columbia City,2070,4880.0,1910.0,,374,,Sold,,,https://www.redfin.com/WA/Seattle/3523-S-Dawson-St-98118/home/172184,NWMLS as Distributed by MLS Grid,2162779.0,N,Y,47.5549155,-122.2883384,Skipped after 3 retries
PAST SALE,November-30-2022,Single Family Residential,4401 S Alaska St,Seattle,WA,98118.0,999999,3,2.5,Columbia City,2280,3220.0,1909.0,,439,,Sold,,,https://www.redfin.com/WA/Seattle/4401-S-Alaska-St-98118/home/491231,NWMLS as Distributed by MLS Grid,2008965.0,N,Y,47.560322,-122.278026,Skipped after 3 retries
PAST SALE,September-15-2023,Single Family Residential,5555 55th Ave S,Seattle,WA,98118.0,1615000,3,2.5,Seward Park,3130,8965.0,1920.0,,516,,Sold,,,https://www.redfin.com/WA/Seattle/5555-55th-Ave-S-98118/home/489807,NWMLS as Distributed by MLS Grid,2151442.0,N,Y,47.5517969,-122.2650603,Skipped after 3 retries
PAST SALE,December-16-2022,Single Family Residential,8652 45th Ave S,Seattle,WA,98118.0,837000,3,2.5,Dunlap,2118,2466.0,2022.0,,395,,Sold,,,https://www.redfin.com/WA/Seattle/8652-45th-Ave-S-98118/home/179607952,NWMLS as Distributed by MLS Grid,2016444.0,N,Y,47.524581,-122.2754091,Skipped after 3 retries
PAST SALE,,Single Family Residential,9728 57th Ave S,Seattle,WA,98118.0,490000,3,1.0,,1320,6684.0,1954.0,,371,,,,,https://www.redfin.com/WA/Seattle/9728-57th-Ave-S-98118/home/176990,,,N,Y,47.5143354,-122.2617742,Skipped after 3 retries
PAST SALE,July-31-2023,Condo/Co-op,7322 Rainier Ave S #209,Seattle,WA,98118.0,380000,2,1.0,Brighton,892,,2006.0,,426,394.0,Sold,,,https://www.redfin.com/WA/Seattle/7322-Rainier-Ave-S-98118/unit-209/home/12448214,NWMLS as Distributed by MLS Grid,2137101.0,N,Y,47.5361591,-122.2698216,Skipped after 3 retries
PAST SALE,October-3-2023,Townhouse,3220 S Edmunds St Unit A,Seattle,WA,98118.0,1010000,3,3.0,Columbia City,1841,1453.0,2013.0,,549,,Sold,,,https://www.redfin.com/WA/Seattle/3220-S-Edmunds-St-98118/unit-A/home/49880326,NWMLS as Distributed by MLS Grid,2160875.0,N,Y,47.5589522,-122.2905565,Skipped after 3 retries
PAST SALE,,Single Family Residential,7014 46th Ave S,Seattle,WA,98118.0,704000,3,3.0,,1650,7686.0,1981.0,,427,,,,,https://www.redfin.com/WA/Seattle/7014-46th-Ave-S-98118/home/173971,,,N,Y,47.5392871,-122.2750783,Skipped after 3 retries
PAST SALE,,Multi-Family (2-4 Unit),5051 37th Ave S,Seattle,WA,98118.0,680000,4,2.0,,1720,3700.0,1927.0,,395,,,,,https://www.redfin.com/WA/Seattle/5051-37th-Ave-S-98118/home/171998,,,N,Y,47.5556069,-122.2864601,Skipped after 3 retries
PAST SALE,May-31-2023,Single Family Residential,5118 S Lucile St,Seattle,WA,98118.0,926000,3,2.0,Seward Park,2380,6153.0,1955.0,,389,,Sold,,,https://www.redfin.com/WA/Seattle/5118-S-Lucile-St-98118/home/492030,NWMLS as Distributed by MLS Grid,2058909.0,N,Y,47.5528181,-122.2690171,Skipped after 3 retries
PAST SALE,,Single Family Residential,5108 S Garden Loop Rd #19,Seattle,WA,98118.0,650000,3,2.5,,1951,204051.0,1990.0,,333,,,,,https://www.redfin.com/WA/Seattle/5108-S-Garden-Loop-Rd-98118/unit-19/home/53874,,,N,Y,47.5124762,-122.2694606,Skipped after 3 retries
PAST SALE,September-13-2023,Single Family Residential,7631 46th Ave S,Seattle,WA,98118.0,750000,2,2.0,Rainier Valley,1150,4815.0,1912.0,,652,,Sold,,,https://www.redfin.com/WA/Seattle/7631-46th-Ave-S-98118/home/174418,NWMLS as Distributed by MLS Grid,2147481.0,N,Y,47.5337871,-122.2757185,Skipped after 3 retries
PAST SALE,July-17-2023,Single Family Residential,5907 44th Ave S,Seattle,WA,98118.0,400000,3,1.5,Columbia City,1410,2732.0,1919.0,,284,,Sold,,,https://www.redfin.com/WA/Seattle/5907-44th-Ave-S-98118/home/172746,NWMLS as Distributed by MLS Grid,2126342.0,N,Y,47.5494591,-122.2783223,Skipped after 3 retries
PAST SALE,August-8-2023,Townhouse,3934 S Brandon St Unit B,Seattle,WA,98118.0,637500,3,2.5,Columbia City,1390,1821.0,2007.0,,459,,Sold,,,https://www.redfin.com/WA/Seattle/3934-S-Brandon-St-98118/unit-B/home/146994945,NWMLS as Distributed by MLS Grid,2137107.0,N,Y,47.5535936,-122.2819083,Skipped after 3 retries
PAST SALE,September-14-2023,Townhouse,4727 35th Ave S,Seattle,WA,98118.0,985000,3,3.0,Columbia City,1850,1595.0,2017.0,,532,,Sold,,,https://www.redfin.com/WA/Seattle/4727-35th-Ave-S-98118/home/143457434,NWMLS as Distributed by MLS Grid,2146835.0,N,Y,47.5598959,-122.2894867,Skipped after 3 retries
PAST SALE,September-7-2023,Single Family Residential,3730 S Burns St,Seattle,WA,98118.0,360000,2,1.0,Beacon Hill,1020,6000.0,1941.0,,353,,Sold,,,https://www.redfin.com/WA/Seattle/3730-S-Burns-St-98118/home/480881,NWMLS as Distributed by MLS Grid,2148012.0,N,Y,47.5167389,-122.2845503,Skipped after 3 retries
PAST SALE,May-12-2023,Single Family Residential,3517 S Dedham St,Seattle,WA,98118.0,595000,3,2.0,Beacon Hill,2100,7187.0,1957.0,,283,,Sold,,,https://www.redfin.com/WA/Seattle/3517-S-Dedham-Pl-98118/home/480849,NWMLS as Distributed by MLS Grid,2057424.0,N,Y,47.5175979,-122.2865468,Skipped after 3 retries
PAST SALE,January-10-2023,Single Family Residential,6523 43rd Ave S,Seattle,WA,98118.0,570000,2,1.0,Hillman City,1490,4600.0,1909.0,,383,,Sold,,,https://www.redfin.com/WA/Seattle/6523-43rd-Ave-S-98118/home/179751715,NWMLS as Distributed by MLS Grid,2020044.0,N,Y,47.5435554,-122.2801217,Skipped after 3 retries
PAST SALE,September-15-2023,Single Family Residential,4703 S Angeline St,Seattle,WA,98118.0,670000,2,1.0,Columbia City,1600,3600.0,1918.0,,419,,Sold,,,https://www.redfin.com/WA/Seattle/4703-S-Angeline-St-98118/home/491860,NWMLS as Distributed by MLS Grid,2150074.0,N,Y,47.5592591,-122.2742258,Skipped after 3 retries
PAST SALE,May-19-2023,Townhouse,3240 S Edmunds Unit A,Seattle,WA,98118.0,553000,2,2.5,Columbia City,1045,,2007.0,,529,200.0,Sold,,,https://www.redfin.com/WA/Seattle/3240-S-Edmunds-St-98118/unit-A/home/11928806,NWMLS as Distributed by MLS Grid,2057172.0,N,Y,47.558827,-122.2897317,Skipped after 3 retries
PAST SALE,June-12-2023,Condo/Co-op,9500 Rainier Ave S #402,Seattle,WA,98118.0,385000,1,1.0,Rainier Beach,657,129500.0,1967.0,,586,437.0,Sold,,,https://www.redfin.com/WA/Seattle/9500-Rainier-Ave-S-98118/unit-402/home/23734,NWMLS as Distributed by MLS Grid,2064011.0,N,Y,47.5212626,-122.2612942,Skipped after 3 retries
PAST SALE,October-23-2023,Single Family Residential,9718 Waters Ave S,Seattle,WA,98118.0,1100000,3,3.0,Upper Rainier Beach,3070,5800.0,1942.0,,358,,Sold,,,https://www.redfin.com/WA/Seattle/9718-Waters-Ave-S-98118/home/179784498,NWMLS as Distributed by MLS Grid,2167162.0,N,Y,47.5151791,-122.2558361,Skipped after 3 retries
PAST SALE,March-3-2023,Single Family Residential,4212 46th Ave S,Seattle,WA,98118.0,1010000,3,2.0,Lakewood,1720,5400.0,1940.0,,587,,Sold,,,https://www.redfin.com/WA/Seattle/4212-46th-Ave-S-98118/home/488805,NWMLS as Distributed by MLS Grid,2032911.0,N,Y,47.5648011,-122.2754654,Skipped after 3 retries
PAST SALE,July-14-2023,Single Family Residential,3705 S Dawson St,Seattle,WA,98118.0,821000,2,1.0,Columbia City,1370,4600.0,1927.0,,599,,Sold,,,https://www.redfin.com/WA/Seattle/3705-S-Dawson-St-98118/home/172013,NWMLS as Distributed by MLS Grid,2130733.0,N,Y,47.5553462,-122.2858147,Skipped after 3 retries
PAST SALE,June-28-2023,Single Family Residential,5526 33rd Ave S,Seattle,WA,98118.0,825000,2,1.0,Beacon Hill,1560,5000.0,1951.0,,529,,Sold,,,https://www.redfin.com/WA/Seattle/5526-33rd-Ave-S-98118/home/479050,NWMLS as Distributed by MLS Grid,2069047.0,N,Y,47.5516396,-122.2901558,Skipped after 3 retries
PAST SALE,March-24-2023,Single Family Residential,4014 46th Ave S,Seattle,WA,98118.0,1580000,3,3.0,Lakewood,2985,7200.0,1945.0,,529,,Sold,,,https://www.redfin.com/WA/Seattle/4014-46th-Ave-S-98118/home/488794,NWMLS as Distributed by MLS Grid,2036378.0,N,Y,47.5671204,-122.275466,Skipped after 3 retries
PAST SALE,August-1-2023,Single Family Residential,3955 S Edmunds St,Seattle,WA,98118.0,907500,2,1.0,Columbia City,1660,4950.0,1920.0,,547,,Sold,,,https://www.redfin.com/WA/Seattle/3955-S-Edmunds-St-98118/home/491242,NWMLS as Distributed by MLS Grid,2138395.0,N,Y,47.5584878,-122.2811629,Skipped after 3 retries
PAST SALE,,Condo/Co-op,9030 Seward Park Ave S #205,Seattle,WA,98118.0,345000,2,2.0,,1040,,1971.0,,332,,,,,https://www.redfin.com/WA/Seattle/9030-Seward-Park-Ave-S-98118/unit-205/home/33096,,,N,Y,47.5221212,-122.2637096,Skipped after 3 retries
PAST SALE,August-16-2023,Condo/Co-op,9520 Rainier Ave S #302,Seattle,WA,98118.0,425000,1,1.0,Rainier Beach,740,,1964.0,,574,535.0,Sold,,,https://www.redfin.com/WA/Seattle/9520-Rainier-Ave-S-98118/unit-302/home/12306106,NWMLS as Distributed by MLS Grid,2130407.0,N,Y,47.5206513,-122.2602596,Skipped after 3 retries
PAST SALE,September-21-2023,Single Family Residential,4541 S Brandon,Seattle,WA,98118.0,580000,3,2.0,Hillman City,3220,6180.0,1912.0,,180,,Sold,,,https://www.redfin.com/WA/Seattle/4541-S-Brandon-St-98118/home/491965,NWMLS as Distributed by MLS Grid,2156029.0,N,Y,47.5531717,-122.2760476,Skipped after 3 retries
PAST SALE,May-10-2023,Single Family Residential,4933 53rd Ave S,Seattle,WA,98118.0,1312500,3,2.0,Seward Park,2120,5100.0,1940.0,,619,,Sold,,,https://www.redfin.com/WA/Seattle/4933-53rd-Ave-S-98118/home/489985,NWMLS as Distributed by MLS Grid,2057075.0,N,Y,47.5572618,-122.2672554,Skipped after 3 retries
PAST SALE,May-30-2023,Single Family Residential,4125 43rd Ave S,Seattle,WA,98118.0,932000,3,1.5,Lakewood,1950,6796.0,1923.0,,478,,Sold,,,https://www.redfin.com/WA/Seattle/4125-43rd-Ave-S-98118/home/488146,NWMLS as Distributed by MLS Grid,2055545.0,N,Y,47.5656619,-122.2798311,Skipped after 3 retries
PAST SALE,March-24-2023,Single Family Residential,4430 Letitia Ave S,Seattle,WA,98118.0,935000,3,2.0,Columbia City,1882,4500.0,1906.0,,497,,Sold,,,https://www.redfin.com/WA/Seattle/4430-Letitia-Ave-S-98118/home/172087,NWMLS as Distributed by MLS Grid,2039546.0,N,Y,47.5632587,-122.288862,Skipped after 3 retries
PAST SALE,October-12-2023,Single Family Residential,5116 S Orcas St,Seattle,WA,98118.0,655000,3,2.0,Seward Park,1190,3090.0,1908.0,,550,,Sold,,,https://www.redfin.com/WA/Seattle/5116-S-Orcas-St-98118/home/491531,NWMLS as Distributed by MLS Grid,2161282.0,N,Y,47.5513184,-122.2691308,Skipped after 3 retries
PAST SALE,March-3-2023,Townhouse,3936 A S Pearl St,Seattle,WA,98118.0,760000,2,2.5,Columbia City,1257,880.0,2022.0,,605,,Sold,,,https://www.redfin.com/WA/Seattle/3936-A-S-Pearl-St-98118/home/177805015,NWMLS as Distributed by MLS Grid,2030206.0,N,Y,47.556347,-122.281818,Skipped after 3 retries
PAST SALE,July-18-2023,Single Family Residential,4814 S Garden St,Seattle,WA,98118.0,608000,3,1.0,Brighton,1700,4000.0,1900.0,,358,,Sold,,,https://www.redfin.com/WA/Seattle/4814-S-Garden-St-98118/home/173864,NWMLS as Distributed by MLS Grid,2132888.0,N,Y,47.5377813,-122.2719859,Skipped after 3 retries
PAST SALE,May-22-2023,Single Family Residential,5935 47th Ave S,Seattle,WA,98118.0,816500,3,3.0,Hillman City,2190,5680.0,1985.0,,373,,Sold,,,https://www.redfin.com/WA/Seattle/5935-47th-Ave-S-98118/home/492656,NWMLS as Distributed by MLS Grid,2058128.0,N,Y,47.5487486,-122.2742103,Skipped after 3 retries
PAST SALE,June-26-2023,Townhouse,7512 43rd Ave S Unit A,Seattle,WA,98118.0,569950,2,2.0,Brighton,1139,1.0,2022.0,,500,44.0,Sold,,,https://www.redfin.com/WA/Seattle/7512-43rd-Ave-S-98118/unit-A/home/185525236,NWMLS as Distributed by MLS Grid,2072996.0,N,Y,47.5347855,-122.2790404,Skipped after 3 retries
PAST SALE,May-26-2023,Single Family Residential,4825 S Othello St,Seattle,WA,98118.0,849950,3,3.5,Brighton,2062,4000.0,2010.0,,412,,Sold,,,https://www.redfin.com/WA/Seattle/4825-S-Othello-St-98118/home/22428345,NWMLS as Distributed by MLS Grid,2060881.0,N,Y,47.5367784,-122.2714721,Skipped after 3 retries
PAST SALE,June-27-2023,Single Family Residential,4037 42nd Ave S,Seattle,WA,98118.0,1240000,3,2.0,Mt Baker,1943,6000.0,1929.0,,638,,Sold,,,https://www.redfin.com/WA/Seattle/4037-42nd-Ave-S-98118/home/489010,NWMLS as Distributed by MLS Grid,2074181.0,N,Y,47.5668085,-122.2810452,Skipped after 3 retries
PAST SALE,April-21-2023,Single Family Residential,4019 38th Ave S,Seattle,WA,98118.0,700000,3,2.0,Mt Baker,1380,3978.0,1947.0,,507,,Sold,,,https://www.redfin.com/WA/Seattle/4019-38th-Ave-S-98118/home/171658,NWMLS as Distributed by MLS Grid,2044945.0,N,Y,47.567299,-122.2853303,Skipped after 3 retries
PAST SALE,June-27-2023,Single Family Residential,9235 Spear Pl S,Seattle,WA,98118.0,830000,3,1.5,Upper Rainier Beach,1460,9057.0,1951.0,,568,,Sold,,,https://www.redfin.com/WA/Seattle/9235-Spear-Pl-S-98118/home/175334,NWMLS as Distributed by MLS Grid,2065971.0,N,Y,47.5201298,-122.2745872,Skipped after 3 retries
PAST SALE,June-26-2023,Townhouse,4507 S Trenton St Unit C,Seattle,WA,98118.0,485002,2,1.5,Rainier Beach,1100,1202.0,2008.0,,441,,Sold,,,https://www.redfin.com/WA/Seattle/4507-S-Trenton-St-98118/unit-C/home/18658327,NWMLS as Distributed by MLS Grid,2067535.0,N,Y,47.5239063,-122.2757547,Skipped after 3 retries
PAST SALE,July-7-2023,Single Family Residential,8731 Hamlet Ave S,Seattle,WA,98118.0,533000,1,1.0,Rainier Beach,780,4500.0,1939.0,,683,,Sold,,,https://www.redfin.com/WA/Seattle/8731-Hamlet-Ave-S-98118/home/174630,NWMLS as Distributed by MLS Grid,2069862.0,N,Y,47.5249805,-122.2657172,Skipped after 3 retries
PAST SALE,May-23-2023,Single Family Residential,3512 S Bennett St,Seattle,WA,98118.0,629000,3,2.5,Columbia City,1140,1680.0,1938.0,,552,,Sold,,,https://www.redfin.com/WA/Seattle/3512-S-Bennett-St-98118/home/172450,NWMLS as Distributed by MLS Grid,2057406.0,N,Y,47.554397,-122.288852,Skipped after 3 retries
PAST SALE,June-1-2023,Single Family Residential,4614 50th Ave S,Seattle,WA,98118.0,918000,3,1.0,Lakewood,2392,7200.0,1918.0,,384,,Sold,,,https://www.redfin.com/WA/Seattle/4614-50th-Ave-S-98118/home/489510,NWMLS as Distributed by MLS Grid,2066304.0,N,Y,47.5612394,-122.2703756,Skipped after 3 retries
PAST SALE,May-9-2023,Townhouse,4781 35th Ave S Unit A,Seattle,WA,98118.0,635000,2,1.5,Columbia City,1050,1243.0,2009.0,,605,,Sold,,,https://www.redfin.com/WA/Seattle/4781-35th-Ave-S-98118/unit-A/home/39613977,NWMLS as Distributed by MLS Grid,2057753.0,N,Y,47.5591822,-122.2891465,Skipped after 3 retries
PAST SALE,May-11-2023,Single Family Residential,8653 Wabash Ave S,Seattle,WA,98118.0,615000,3,2.0,Rainier Beach,1900,3000.0,1903.0,,324,,Sold,,,https://www.redfin.com/WA/Seattle/8653-Wabash-Ave-S-98118/home/175086,NWMLS as Distributed by MLS Grid,2052765.0,N,Y,47.5255593,-122.2650653,Skipped after 3 retries
PAST SALE,July-7-2023,Single Family Residential,3511 S Ferdinand St,Seattle,WA,98118.0,697000,3,1.5,Columbia City,1340,3300.0,1901.0,,520,,Sold,,,https://www.redfin.com/WA/Seattle/3511-S-Ferdinand-St-98118/home/172692,NWMLS as Distributed by MLS Grid,2077013.0,N,Y,47.5576965,-122.2882973,Skipped after 3 retries
PAST SALE,July-31-2023,Single Family Residential,4736 S Bennett St,Seattle,WA,98118.0,840000,2,2.0,Seward Park,1630,4269.0,1955.0,,515,,Sold,,,https://www.redfin.com/WA/Seattle/4736-S-Bennett-St-98118/home/491661,NWMLS as Distributed by MLS Grid,2133663.0,N,Y,47.5546053,-122.2729842,Skipped after 3 retries
PAST SALE,,Single Family Residential,9344 53rd Ave S,Seattle,WA,98118.0,450000,2,1.0,,920,5250.0,1906.0,,489,,,,,https://www.redfin.com/WA/Seattle/9344-53rd-Ave-S-98118/home/176430,,,N,Y,47.5176641,-122.2659933,Skipped after 3 retries
PAST SALE,May-31-2023,Single Family Residential,3818 Cascadia Ave S,Seattle,WA,98118.0,2295000,3,3.0,Mt Baker,2740,12360.0,1941.0,,838,,Sold,,,https://www.redfin.com/WA/Seattle/3818-Cascadia-Ave-S-98118/home/488308,NWMLS as Distributed by MLS Grid,2059436.0,N,Y,47.5691619,-122.2825691,Skipped after 3 retries
PAST SALE,November-23-2022,Single Family Residential,4728 S Brandon St,Seattle,WA,98118.0,1140000,3,2.5,Seward Park,1940,2880.0,2018.0,,588,,Sold,,,https://www.redfin.com/WA/Seattle/4728-S-Brandon-St-98118/home/492049,NWMLS as Distributed by MLS Grid,2007172.0,N,Y,47.5535957,-122.2732385,Skipped after 3 retries
PAST SALE,March-24-2023,Townhouse,9326 Renton Ave S,Seattle,WA,98118.0,505000,2,2.0,Upper Rainier Beach,1011,6741.0,2022.0,,500,,Sold,,,https://www.redfin.com/WA/Seattle/9326-Renton-Ave-S-98118/home/184100649,NWMLS as Distributed by MLS Grid,2032347.0,N,Y,47.5185019,-122.270922,Skipped after 3 retries
PAST SALE,October-16-2023,Single Family Residential,5418 S Lucile St,Seattle,WA,98118.0,1235500,3,3.0,Seward Park,2500,6050.0,1958.0,,494,,Sold,,,https://www.redfin.com/WA/Seattle/5418-S-Lucile-St-98118/home/490642,NWMLS as Distributed by MLS Grid,2159740.0,N,Y,47.5526687,-122.2652782,Skipped after 3 retries
PAST SALE,May-26-2023,Condo/Co-op,7639 46th Ave S Unit A,Seattle,WA,98118.0,544950,2,2.5,Rainier Valley,950,1181.0,2023.0,,574,258.0,Sold,,,https://www.redfin.com/WA/Seattle/7639-46th-Ave-S-98118/unit-A/home/185180888,NWMLS as Distributed by MLS Grid,2058461.0,N,Y,47.5336352,-122.2757534,Skipped after 3 retries
PAST SALE,May-18-2023,Condo/Co-op,7639 46th Ave S Unit B,Seattle,WA,98118.0,550000,2,2.5,Rainier Valley,950,1181.0,2023.0,,579,258.0,Sold,,,https://www.redfin.com/WA/Seattle/7639-46th-Ave-S-98118/unit-B/home/185095568,NWMLS as Distributed by MLS Grid,2055348.0,N,Y,47.5336352,-122.2757534,Skipped after 3 retries
PAST SALE,May-18-2023,Single Family Residential,6030 51st Pl S,Seattle,WA,98118.0,1960000,3,2.5,Seward Park,2030,17160.0,1970.0,,966,,Sold,,,https://www.redfin.com/WA/Seattle/6030-51st-Pl-S-98118/home/489981,NWMLS as Distributed by MLS Grid,2053400.0,N,Y,47.5481834,-122.2686397,Skipped after 3 retries
PAST SALE,April-18-2023,Townhouse,6717 35th Pl S,Seattle,WA,98118.0,649950,3,2.5,Holly Park,2070,1585.0,2003.0,,314,400.0,Sold,,,https://www.redfin.com/WA/Seattle/6717-35th-Pl-S-98118/home/478680,NWMLS as Distributed by MLS Grid,2044691.0,N,Y,47.5416608,-122.2884144,Skipped after 3 retries
PAST SALE,July-25-2023,Single Family Residential,6026 S Redwing St,Seattle,WA,98118.0,659950,3,3.0,Seattle,2000,6150.0,1980.0,,330,,Sold,,,https://www.redfin.com/WA/Seattle/6026-S-Redwing-St-98118/home/177618,NWMLS as Distributed by MLS Grid,2077183.0,N,Y,47.5180418,-122.2582715,Skipped after 3 retries
PAST SALE,April-20-2023,Single Family Residential,7642 39th Ave S,Seattle,WA,98118.0,675000,3,2.5,Seattle,1320,2474.0,2005.0,,511,77.0,Sold,,,https://www.redfin.com/WA/Seattle/7642-39th-Ave-S-98118/home/2061558,NWMLS as Distributed by MLS Grid,2044611.0,N,Y,47.5335686,-122.2832042,Skipped after 3 retries
PAST SALE,October-24-2023,Single Family Residential,4075 Letitia Ave S,Seattle,WA,98118.0,849000,3,3.0,Columbia City,2260,2250.0,2010.0,,376,,Sold,,,https://www.redfin.com/WA/Seattle/4075-Letitia-Ave-S-98118/home/22714372,NWMLS as Distributed by MLS Grid,2164502.0,N,Y,47.5661843,-122.2900784,Skipped after 3 retries
PAST SALE,November-23-2022,Single Family Residential,4828 S Findlay St,Seattle,WA,98118.0,936000,3,2.0,Columbia City,1800,6180.0,1908.0,,520,,Sold,,,https://www.redfin.com/WA/Seattle/4828-S-Findlay-St-98118/home/492338,NWMLS as Distributed by MLS Grid,2005157.0,N,Y,47.5522088,-122.2714984,Skipped after 3 retries
PAST SALE,May-22-2023,Single Family Residential,4220 50th Ave S,Seattle,WA,98118.0,750000,2,1.0,Seward Park,1400,4800.0,1938.0,,536,,Sold,,,https://www.redfin.com/WA/Seattle/4220-50th-Ave-S-98118/home/490481,NWMLS as Distributed by MLS Grid,2061626.0,N,Y,47.5646041,-122.270518,Skipped after 3 retries
PAST SALE,March-7-2023,Single Family Residential,7212 33rd Ave S,Seattle,WA,98118.0,570000,3,1.0,Beacon Hill,1920,7415.0,1992.0,,297,,Sold,,,https://www.redfin.com/WA/Seattle/7212-33rd-Ave-S-98118/home/479719,NWMLS as Distributed by MLS Grid,2030242.0,N,Y,47.5378863,-122.2897172,Skipped after 3 retries
PAST SALE,March-21-2023,Single Family Residential,4711 45th Ave S,Seattle,WA,98118.0,852000,3,1.5,Columbia City,1560,5303.0,1910.0,,546,,Sold,,,https://www.redfin.com/WA/Seattle/4711-45th-Ave-S-98118/home/491215,NWMLS as Distributed by MLS Grid,2037974.0,N,Y,47.5601713,-122.277306,Skipped after 3 retries
PAST SALE,December-22-2022,Single Family Residential,4822 S Graham St,Seattle,WA,98118.0,1175000,3,2.5,Seward Park,2570,12036.0,1911.0,,457,,Sold,,,https://www.redfin.com/WA/Seattle/4822-S-Graham-St-98118/home/491527,NWMLS as Distributed by MLS Grid,2018843.0,N,Y,47.5462935,-122.2716886,Skipped after 3 retries
PAST SALE,May-18-2023,Townhouse,9322 Renton Ave S,Seattle,WA,98118.0,569000,2,2.0,Upper Rainier Beach,1328,6741.0,2022.0,,428,,Sold,,,https://www.redfin.com/WA/Seattle/9322-Renton-Ave-S-98118/home/185107032,NWMLS as Distributed by MLS Grid,2055643.0,N,Y,47.5185292,-122.270935,Skipped after 3 retries
PAST SALE,January-25-2023,Townhouse,3316 S Holly Pl,Seattle,WA,98118.0,530000,3,1.5,Seattle,1260,2189.0,2004.0,,421,380.0,Sold,,,https://www.redfin.com/WA/Seattle/3316-S-Holly-Pl-98118/home/2090745,NWMLS as Distributed by MLS Grid,2022211.0,N,Y,47.5423307,-122.2895058,Skipped after 3 retries
PAST SALE,July-28-2023,Single Family Residential,4809 S Alaska St,Seattle,WA,98118.0,925000,2,1.5,Seward Park,2040,5100.0,1919.0,,453,,Sold,,,https://www.redfin.com/WA/Seattle/4809-S-Alaska-St-98118/home/490881,NWMLS as Distributed by MLS Grid,2133805.0,N,Y,47.5604133,-122.2727307,Skipped after 3 retries
PAST SALE,July-17-2023,Single Family Residential,3901 S Eddy St,Seattle,WA,98118.0,670000,3,2.0,Hillman City,1860,3400.0,1916.0,,360,,Sold,,,https://www.redfin.com/WA/Seattle/3901-S-Eddy-St-98118/home/173966,NWMLS as Distributed by MLS Grid,2126592.0,N,Y,47.5451249,-122.283148,Skipped after 3 retries
PAST SALE,July-31-2023,Condo/Co-op,9030 Seward Park Ave S #303,Seattle,WA,98118.0,385000,2,2.0,Seward Park,1004,,1971.0,,383,538.0,Sold,,,https://www.redfin.com/WA/Seattle/9030-Seward-Park-Ave-S-98118/unit-303/home/30824,NWMLS as Distributed by MLS Grid,2135726.0,N,Y,47.5221212,-122.2637096,Skipped after 3 retries
PAST SALE,April-27-2023,Single Family Residential,4841 S Raymond St,Seattle,WA,98118.0,553000,3,1.5,Seward Park,1100,6300.0,1910.0,,503,,Sold,,,https://www.redfin.com/WA/Seattle/4841-S-Raymond-St-98118/home/490920,NWMLS as Distributed by MLS Grid,2044948.0,N,Y,47.548241,-122.2710338,Skipped after 3 retries
PAST SALE,June-21-2023,Single Family Residential,5418 57th Ave S,Seattle,WA,98118.0,1120000,3,2.0,Seward Park,2260,6180.0,1951.0,,496,,Sold,,,https://www.redfin.com/WA/Seattle/5418-57th-Ave-S-98118/home/490735,NWMLS as Distributed by MLS Grid,2069203.0,N,Y,47.5528441,-122.2617294,Skipped after 3 retries
PAST SALE,May-5-2023,Single Family Residential,5543 S Morgan St Unit B,Seattle,WA,98118.0,739000,2,2.0,Seward Park,1117,1.0,2023.0,,662,21.0,Sold,,,https://www.redfin.com/WA/Seattle/5543-S-Morgan-St-98118/unit-B/home/184810707,NWMLS as Distributed by MLS Grid,2049665.0,N,Y,47.5440916,-122.2623907,Skipped after 3 retries
PAST SALE,June-1-2023,Condo/Co-op,9030 Seward Park Ave S #313,Seattle,WA,98118.0,430000,2,2.0,Dunlap,1288,,1971.0,,334,851.0,Sold,,,https://www.redfin.com/WA/Seattle/9030-Seward-Park-Ave-S-98118/unit-313/home/24577,NWMLS as Distributed by MLS Grid,2055154.0,N,Y,47.5221212,-122.2637096,Skipped after 3 retries
PAST SALE,March-22-2023,Single Family Residential,5311 46th Ave S,Seattle,WA,98118.0,710000,2,2.0,Columbia City,1460,5073.0,1926.0,,486,,Sold,,,https://www.redfin.com/WA/Seattle/5311-46th-Ave-S-98118/home/492682,NWMLS as Distributed by MLS Grid,2037254.0,N,Y,47.5541133,-122.27567,Skipped after 3 retries
PAST SALE,August-18-2023,Single Family Residential,4702 S Alaska St,Seattle,WA,98118.0,670000,3,1.0,Seattle,1540,3200.0,1926.0,,435,,Sold,,,https://www.redfin.com/WA/Seattle/4702-S-Alaska-St-98118/home/491898,NWMLS as Distributed by MLS Grid,2078111.0,N,Y,47.5607445,-122.2742603,Skipped after 3 retries
PAST SALE,March-3-2023,Single Family Residential,6510 45th Ave S,Seattle,WA,98118.0,778000,3,2.0,Brighton,1380,3997.0,1990.0,,564,,Sold,,,https://www.redfin.com/WA/Seattle/6510-45th-Ave-S-98118/home/173717,NWMLS as Distributed by MLS Grid,2029916.0,N,Y,47.5438477,-122.2762035,Skipped after 3 retries
PAST SALE,October-12-2023,Single Family Residential,4653 S Chicago St,Seattle,WA,98118.0,580000,3,2.0,Rainier Beach,1640,8150.0,1951.0,,354,,Sold,,,https://www.redfin.com/WA/Seattle/4653-S-Chicago-St-98118/home/174652,NWMLS as Distributed by MLS Grid,2153770.0,N,Y,47.5324759,-122.2730949,Skipped after 3 retries
PAST SALE,September-25-2023,Single Family Residential,4408 S Cloverdale St,Seattle,WA,98118.0,679950,3,1.0,Rainier Beach,1320,5130.0,1957.0,,515,,Sold,,,https://www.redfin.com/WA/Seattle/4408-S-Cloverdale-St-98118/home/174796,NWMLS as Distributed by MLS Grid,2154478.0,N,Y,47.5262933,-122.2776731,Skipped after 3 retries
PAST SALE,February-7-2023,Single Family Residential,7730 39th Ave S,Seattle,WA,98118.0,679950,3,3.5,Holly Park,1770,4634.0,2005.0,,384,77.0,Sold,,,https://www.redfin.com/WA/Seattle/7730-39th-Ave-S-98118/home/2062331,NWMLS as Distributed by MLS Grid,2025523.0,N,Y,47.53248,-122.2830988,Skipped after 3 retries
PAST SALE,August-25-2023,Single Family Residential,5031 50th Ave S,Seattle,WA,98118.0,787500,3,2.0,Seward Park,1039,11000.0,1949.0,,758,,Sold,,,https://www.redfin.com/WA/Seattle/5031-50th-Ave-S-98118/home/492592,NWMLS as Distributed by MLS Grid,2146634.0,N,Y,47.5560147,-122.2712212,Skipped after 3 retries
PAST SALE,September-5-2023,Condo/Co-op,9500 Rainier Ave S #503,Seattle,WA,98118.0,468500,2,1.0,Rainier Beach,905,,1967.0,,518,713.0,Sold,,,https://www.redfin.com/WA/Seattle/9500-Rainier-Ave-S-98118/unit-503/home/49600,NWMLS as Distributed by MLS Grid,2146080.0,N,Y,47.5212626,-122.2612942,Skipped after 3 retries
PAST SALE,June-28-2023,Single Family Residential,9856 63rd Ave S,Seattle,WA,98118.0,1020000,2,2.5,Upper Rainier Beach,2350,6554.0,1931.0,,434,,Sold,,,https://www.redfin.com/WA/Seattle/9856-63rd-Ave-S-98118/home/175850,NWMLS as Distributed by MLS Grid,2071473.0,N,Y,47.5118308,-122.2543902,Skipped after 3 retries
PAST SALE,January-3-2023,Single Family Residential,9316 57th Ave S,Seattle,WA,98118.0,700000,2,1.0,Upper Rainier Beach,1092,5250.0,1951.0,,641,,Sold,,,https://www.redfin.com/WA/Seattle/9316-57th-Ave-S-98118/unit-5/home/176523,NWMLS as Distributed by MLS Grid,2017934.0,N,Y,47.5184684,-122.2613977,Skipped after 3 retries
PAST SALE,December-1-2022,Townhouse,8712 42nd Ave S,Seattle,WA,98118.0,598800,3,3.5,Columbia City,1500,1274.0,2018.0,,399,130.0,Sold,,,https://www.redfin.com/WA/Seattle/8712-42nd-Ave-S-98118/home/109662284,NWMLS as Distributed by MLS Grid,2010389.0,N,Y,47.5247903,-122.2806599,Skipped after 3 retries
PAST SALE,November-23-2022,Single Family Residential,6020 44th Ave S,Seattle,WA,98118.0,675000,2,1.0,Hillman City,1480,4400.0,1938.0,,456,,Sold,,,https://www.redfin.com/WA/Seattle/6020-44th-Ave-S-98118/home/173765,NWMLS as Distributed by MLS Grid,2011796.0,N,Y,47.5475541,-122.2778721,Skipped after 3 retries
PAST SALE,February-24-2023,Townhouse,3735 S Holly Park Dr,Seattle,WA,98118.0,509000,2,2.5,Beacon Hill,1214,1990.0,2006.0,,419,557.0,Sold,,,https://www.redfin.com/WA/Seattle/3735-Holly-Park-Dr-S-98118/home/182021489,NWMLS as Distributed by MLS Grid,2026029.0,N,Y,47.5360577,-122.2850966,Skipped after 3 retries
PAST SALE,September-8-2023,Single Family Residential,5536 S Holly St,Seattle,WA,98118.0,885000,2,2.0,Seward Park,1750,6600.0,1950.0,,506,,Sold,,,https://www.redfin.com/WA/Seattle/5536-S-Holly-St-98118/home/490645,NWMLS as Distributed by MLS Grid,2149460.0,N,Y,47.5426427,-122.2630696,Skipped after 3 retries
PAST SALE,August-11-2023,Townhouse,4444 33rd Ave S Unit B,Seattle,WA,98118.0,639000,2,2.5,Columbia City,1091,440.0,2023.0,,586,42.0,Sold,,,https://www.redfin.com/WA/Seattle/4444-33rd-Ave-S-98118/unit-B/home/186035682,NWMLS as Distributed by MLS Grid,2135232.0,N,Y,47.5632968,-122.2911013,Skipped after 3 retries
PAST SALE,October-27-2023,Townhouse,4722 B 38th Ave S,Seattle,WA,98118.0,819950,3,2.5,Columbia City,1575,692.0,2023.0,,521,1.0,Sold,,,https://www.redfin.com/WA/Seattle/4722-38th-Ave-S-98118/unit-B/home/184011057,NWMLS as Distributed by MLS Grid,2164353.0,N,Y,47.55999,-122.284375,Skipped after 3 retries
PAST SALE,July-26-2023,Single Family Residential,5200 S Cloverdale Pl,Seattle,WA,98118.0,719000,2,1.0,Rainier Beach,1800,4250.0,1949.0,,399,,Sold,,,https://www.redfin.com/WA/Seattle/5200-S-Cloverdale-Pl-98118/home/174625,NWMLS as Distributed by MLS Grid,2127024.0,N,Y,47.5279574,-122.2675878,Skipped after 3 retries
PAST SALE,July-18-2023,Townhouse,4722 Unit E 38th Ave S,Seattle,WA,98118.0,940000,3,2.5,Columbia City,1822,800.0,2023.0,,516,1.0,Sold,,,https://www.redfin.com/WA/Seattle/4722-E-38th-Ave-S-98118/home/183784678,NWMLS as Distributed by MLS Grid,2074936.0,N,Y,47.560089,-122.284721,Skipped after 3 retries
PAST SALE,July-6-2023,Single Family Residential,6537 Seward Park Ave S,Seattle,WA,98118.0,675000,2,1.0,Seward Park,1580,7956.0,1910.0,,427,,Sold,,,https://www.redfin.com/WA/Seattle/6537-Seward-Park-Ave-S-98118/home/491847,NWMLS as Distributed by MLS Grid,2071783.0,N,Y,47.5432475,-122.2655459,Skipped after 3 retries
PAST SALE,November-30-2022,Single Family Residential,4606 S Frontenac St,Seattle,WA,98118.0,1250000,3,4.0,Rainier Valley,2270,5078.0,2022.0,,551,,Sold,,,https://www.redfin.com/WA/Seattle/4606-S-Frontenac-St-98118/home/106725503,NWMLS as Distributed by MLS Grid,2009280.0,N,Y,47.5399947,-122.2748665,Skipped after 3 retries
PAST SALE,July-5-2023,Single Family Residential,5547 S Morgan St,Seattle,WA,98118.0,735000,2,2.0,Seward Park,1115,1.0,2023.0,,659,55.0,Sold,,,https://www.redfin.com/WA/Seattle/5547-S-Morgan-St-98118/home/185683729,NWMLS as Distributed by MLS Grid,2101789.0,N,Y,47.5440299,-122.2623511,Skipped after 3 retries
PAST SALE,September-29-2023,Single Family Residential,4614 S Cooper St,Seattle,WA,98118.0,437000,3,1.0,Seattle,990,7920.0,1967.0,,441,,Sold,,,https://www.redfin.com/WA/Seattle/4614-S-Cooper-St-98118/home/175565,NWMLS as Distributed by MLS Grid,2148978.0,N,Y,47.5113334,-122.2744434,Skipped after 3 retries
PAST SALE,February-10-2023,Condo/Co-op,5122 S Mayflower St #202,Seattle,WA,98118.0,376000,1,1.0,Seward Park,809,,2003.0,,465,380.0,Sold,,,https://www.redfin.com/WA/Seattle/5122-S-Mayflower-St-98118/unit-202/home/43471,NWMLS as Distributed by MLS Grid,2024708.0,N,Y,47.5543018,-122.2687165,Skipped after 3 retries
PAST SALE,June-29-2023,Townhouse,7514 43rd Ave S Unit D,Seattle,WA,98118.0,554250,2,2.0,Brighton,1147,1.0,2022.0,,483,45.0,Sold,,,https://www.redfin.com/WA/Seattle/7514-43rd-Ave-S-98118/unit-D/home/185383273,NWMLS as Distributed by MLS Grid,2066248.0,N,Y,47.5347817,-122.2787987,Skipped after 3 retries
PAST SALE,,Townhouse,4920 S Willow St,Seattle,WA,98118.0,599000,4,2.5,,1550,1414.0,2017.0,,386,,,,,https://www.redfin.com/WA/Seattle/4920-S-Willow-St-98118/home/174027165,,,N,Y,47.541132,-122.270641,Skipped after 3 retries
PAST SALE,June-30-2023,Single Family Residential,5545 S Morgan St,Seattle,WA,98118.0,769000,2,2.5,Seward Park,1259,1.0,2023.0,,611,16.0,Sold,,,https://www.redfin.com/WA/Seattle/5545-S-Morgan-St-98118/home/185461996,NWMLS as Distributed by MLS Grid,2070551.0,N,Y,47.5440311,-122.2623715,Skipped after 3 retries
PAST SALE,June-22-2023,Single Family Residential,4412 S Kenyon St,Seattle,WA,98118.0,640000,3,2.0,Rainier Beach,1660,2925.0,1927.0,,386,,Sold,,,https://www.redfin.com/WA/Seattle/4412-S-Kenyon-St-98118/home/174412,NWMLS as Distributed by MLS Grid,2067070.0,N,Y,47.5317013,-122.2777308,Skipped after 3 retries
PAST SALE,May-10-2023,Townhouse,3715 S Holly Park Dr,Seattle,WA,98118.0,500000,2,2.5,Beacon Hill,1134,,2006.0,,441,622.0,Sold,,,https://www.redfin.com/WA/Seattle/3715-S-Holly-Park-Dr-98118/home/17081338,NWMLS as Distributed by MLS Grid,2049508.0,N,Y,47.5363082,-122.2859021,Skipped after 3 retries
PAST SALE,July-17-2023,Single Family Residential,7708 35th Ave S,Seattle,WA,98118.0,460000,2,1.0,Beacon Hill,800,2315.0,1950.0,,575,,Sold,,,https://www.redfin.com/WA/Seattle/7708-35th-Ave-S-98118/home/480736,NWMLS as Distributed by MLS Grid,2078395.0,N,Y,47.5327633,-122.288009,Skipped after 3 retries
PAST SALE,April-21-2023,Single Family Residential,8421 37th Ave S,Seattle,WA,98118.0,739000,3,2.5,Beacon Hill,2200,7864.0,1959.0,,336,,Sold,,,https://www.redfin.com/WA/Seattle/8421-37th-Ave-S-98118/home/480006,NWMLS as Distributed by MLS Grid,2038508.0,N,Y,47.5272902,-122.2861882,Skipped after 3 retries
PAST SALE,May-26-2023,Single Family Residential,4908 S Snoqualmie St,Seattle,WA,98118.0,1150000,3,2.0,Seward Park,2132,7200.0,1947.0,,539,,Sold,,,https://www.redfin.com/WA/Seattle/4908-S-Snoqualmie-St-98118/home/491742,NWMLS as Distributed by MLS Grid,2054043.0,N,Y,47.5619703,-122.2714502,Skipped after 3 retries
PAST SALE,August-3-2023,Single Family Residential,3824 42nd Ave S,Seattle,WA,98118.0,1090000,3,2.0,Mt Baker,2260,5400.0,1951.0,,482,,Sold,,,https://www.redfin.com/WA/Seattle/3824-42nd-Ave-S-98118/home/488485,NWMLS as Distributed by MLS Grid,2131883.0,N,Y,47.5690916,-122.2804819,Skipped after 3 retries
PAST SALE,,Single Family Residential,9206 37th Ave S,Seattle,WA,98118.0,615000,3,2.0,,1660,4000.0,1957.0,,370,,,,,https://www.redfin.com/WA/Seattle/9206-37th-Ave-S-98118/home/479813,,,N,Y,47.5211253,-122.2856797,Skipped after 3 retries
PAST SALE,April-19-2023,Condo/Co-op,5108 S Garden Loop Rd,Seattle,WA,98118.0,650000,3,2.5,Upper Rainier Beach,1951,,1990.0,,333,225.0,Sold,,,https://www.redfin.com/WA/Seattle/5108-S-Garden-Loop-Rd-98118/home/179799146,NWMLS as Distributed by MLS Grid,2042146.0,N,Y,47.5124762,-122.2694606,Skipped after 3 retries
PAST SALE,February-24-2023,Townhouse,7514 43rd Ave S Unit A,Seattle,WA,98118.0,569000,2,2.0,Brighton,1147,1.0,2022.0,,496,1.0,Sold,,,https://www.redfin.com/WA/Seattle/7514-43rd-Ave-S-98118/unit-A/home/183874737,NWMLS as Distributed by MLS Grid,2029169.0,N,Y,47.5347817,-122.2787987,Skipped after 3 retries
PAST SALE,December-28-2022,Condo/Co-op,3930 S Edmunds St Unit A,Seattle,WA,98118.0,580000,2,2.5,Columbia City,840,811.0,2022.0,,690,260.0,Sold,,,https://www.redfin.com/WA/Seattle/3930-S-Edmunds-St-98118/unit-A/home/181262670,NWMLS as Distributed by MLS Grid,2012380.0,N,Y,47.5588369,-122.2820091,Skipped after 3 retries
PAST SALE,May-18-2023,Condo/Co-op,4617 S Austin St,Seattle,WA,98118.0,525000,2,1.5,Brighton,1083,3415.0,1918.0,,485,21.0,Sold,,,https://www.redfin.com/WA/Seattle/4617-S-Austin-St-98118/home/175019,NWMLS as Distributed by MLS Grid,2053109.0,N,Y,47.534409,-122.274306,Skipped after 3 retries
PAST SALE,July-7-2023,Single Family Residential,4414 S Frontenac St,Seattle,WA,98118.0,500000,3,1.5,Brighton,910,6350.0,1960.0,,549,,Sold,,,https://www.redfin.com/WA/Seattle/4414-S-Frontenac-St-98118/home/173572,NWMLS as Distributed by MLS Grid,2075660.0,N,Y,47.5399841,-122.2773116,Skipped after 3 retries
PAST SALE,February-28-2023,Single Family Residential,7156 44th Ave S,Seattle,WA,98118.0,670000,3,2.5,Brighton,1381,1196.0,2022.0,,485,,Sold,,,https://www.redfin.com/WA/Seattle/7156-44th-Ave-S-98118/home/183885324,NWMLS as Distributed by MLS Grid,2029413.0,N,Y,47.5375181,-122.2775286,Skipped after 3 retries
PAST SALE,October-3-2023,Townhouse,6713 35th Pl S,Seattle,WA,98118.0,630000,3,2.5,Holly Park,2070,1958.0,2003.0,,304,400.0,Sold,,,https://www.redfin.com/WA/Seattle/6713-35th-Pl-S-98118/home/478356,NWMLS as Distributed by MLS Grid,2145727.0,N,Y,47.5416797,-122.2883919,Skipped after 3 retries
PAST SALE,July-26-2023,Single Family Residential,9323 57th Ave S,Seattle,WA,98118.0,670000,2,2.0,Upper Rainier Beach,1460,5250.0,1922.0,,459,,Sold,,,https://www.redfin.com/WA/Seattle/9323-57th-Ave-S-98118/home/175954,NWMLS as Distributed by MLS Grid,2075566.0,N,Y,47.5181914,-122.2620071,Skipped after 3 retries
PAST SALE,November-8-2022,Single Family Residential,7922 1/2 Seward Park Ave S,Seattle,WA,98118.0,1050000,2,2.0,Seward Park,3120,14420.0,1953.0,,337,,Sold,,,https://www.redfin.com/WA/Seattle/7922-Seward-Park-Ave-S-98118/home/489584,NWMLS as Distributed by MLS Grid,1994443.0,N,Y,47.5310435,-122.2638154,Skipped after 3 retries
PAST SALE,July-7-2023,Townhouse,3926 S Brandon St Unit B,Seattle,WA,98118.0,620000,2,1.5,Columbia City,1055,1125.0,2012.0,,588,,Sold,,,https://www.redfin.com/WA/Seattle/3926-S-Brandon-St-98118/unit-B/home/26790661,NWMLS as Distributed by MLS Grid,2077976.0,N,Y,47.5537018,-122.2823033,Skipped after 3 retries
PAST SALE,September-22-2023,Single Family Residential,5232 33rd Ave S,Seattle,WA,98118.0,450000,2,1.0,Columbia City,1000,4080.0,1920.0,,450,,Sold,,,https://www.redfin.com/WA/Seattle/5232-33rd-Ave-S-98118/home/477880,NWMLS as Distributed by MLS Grid,2138604.0,N,Y,47.5542963,-122.2902717,Skipped after 3 retries
PAST SALE,May-5-2023,Townhouse,4087 Letitia Ave S Unit A,Seattle,WA,98118.0,900000,3,3.5,Columbia City,1829,1852.0,2023.0,,492,,Sold,,,https://www.redfin.com/WA/Seattle/4087-Letitia-Ave-S-98118/unit-A/home/184708045,NWMLS as Distributed by MLS Grid,2042728.0,N,Y,47.5657984,-122.2901302,Skipped after 3 retries
PAST SALE,June-9-2023,Condo/Co-op,7637 46th Ave S Unit B,Seattle,WA,98118.0,535000,2,2.5,Rainier Valley,950,1181.0,2023.0,,563,258.0,Sold,,,https://www.redfin.com/WA/Seattle/7637-46th-Ave-S-98118/unit-B/home/185251599,NWMLS as Distributed by MLS Grid,2060724.0,N,Y,47.5336264,-122.2757347,Skipped after 3 retries
PAST SALE,August-18-2023,Townhouse,4225 B Letitia Ave S,Seattle,WA,98118.0,899000,3,3.0,Columbia City,1862,1680.0,2023.0,,483,,Sold,,,https://www.redfin.com/WA/Seattle/4225B-Letitia-Ave-S-98118/home/186023165,NWMLS as Distributed by MLS Grid,2130905.0,N,Y,47.5647057,-122.2898102,Skipped after 3 retries
PAST SALE,April-28-2023,Townhouse,9316 Renton Ave S,Seattle,WA,98118.0,608000,3,2.0,Upper Rainier Beach,1449,6741.0,2022.0,,420,,Sold,,,https://www.redfin.com/WA/Seattle/9316-Renton-Ave-S-98118/home/184669707,NWMLS as Distributed by MLS Grid,2043153.0,N,Y,47.5185428,-122.2709555,Skipped after 3 retries
PAST SALE,November-8-2022,Single Family Residential,5527 33rd Ave S,Seattle,WA,98118.0,390800,1,1.0,Beacon Hill,530,2500.0,1929.0,,737,,Sold,,,https://www.redfin.com/WA/Seattle/5527-33rd-Ave-S-98118/home/479057,NWMLS as Distributed by MLS Grid,1990261.0,N,Y,47.5517064,-122.2907584,Skipped after 3 retries
PAST SALE,March-7-2023,Townhouse,9356 Sturtevant Ave S,Seattle,WA,98118.0,535000,2,2.0,Rainier Beach,1185,1093.0,2023.0,,451,,Sold,,,https://www.redfin.com/WA/Seattle/9356-Sturtevant-Ave-S-98118/home/183802516,NWMLS as Distributed by MLS Grid,2027509.0,N,Y,47.5174375,-122.2677304,Skipped after 3 retries
PAST SALE,June-13-2023,Townhouse,4087 Letitia Ave S Unit C,Seattle,WA,98118.0,882000,3,3.5,Columbia City,1836,1502.0,2023.0,,480,,Sold,,,https://www.redfin.com/WA/Seattle/4087-Letitia-Ave-S-98118/unit-C/home/185153916,NWMLS as Distributed by MLS Grid,2056912.0,N,Y,47.5657984,-122.2901302,Skipped after 3 retries
PAST SALE,July-19-2023,Condo/Co-op,9030 Seward Park Ave S #400,Seattle,WA,98118.0,260000,0,1.0,Dunlap,465,,1971.0,,559,253.0,Sold,,,https://www.redfin.com/WA/Seattle/9030-Seward-Park-Ave-S-98118/unit-400/home/24579,NWMLS as Distributed by MLS Grid,2072830.0,N,Y,47.5221212,-122.2637096,Skipped after 3 retries
PAST SALE,February-9-2023,Single Family Residential,4056 34th Ave S,Seattle,WA,98118.0,990000,2,2.5,Columbia City,1872,3000.0,2007.0,,529,,Sold,,,https://www.redfin.com/WA/Seattle/4056-34th-Ave-S-98118/home/12300049,NWMLS as Distributed by MLS Grid,2018707.0,N,Y,47.5667101,-122.2906329,Skipped after 3 retries
PAST SALE,August-15-2023,Condo/Co-op,4617 S Austin St Unit B,Seattle,WA,98118.0,622000,2,1.5,Brighton,1222,1899.0,2023.0,,509,21.0,Sold,,,https://www.redfin.com/WA/Seattle/4617-S-Austin-St-98118/unit-B/home/184355946,NWMLS as Distributed by MLS Grid,2130117.0,N,Y,47.5344856,-122.2743126,Skipped after 3 retries
PAST SALE,November-7-2022,Townhouse,4313 S Webster St Unit D,Seattle,WA,98118.0,618000,3,2.5,Seattle,1220,1136.0,2008.0,,507,,Sold,,,https://www.redfin.com/WA/Seattle/4313-S-Webster-St-98118/unit-D/home/178333709,NWMLS as Distributed by MLS Grid,1997271.0,N,Y,47.5350501,-122.2786667,Skipped after 3 retries
PAST SALE,April-7-2023,Townhouse,9318 Renton Ave S,Seattle,WA,98118.0,549000,2,2.0,Upper Rainier Beach,1214,6741.0,2022.0,,452,,Sold,,,https://www.redfin.com/WA/Seattle/9318-Renton-Ave-S-98118/home/184196221,NWMLS as Distributed by MLS Grid,2034183.0,N,Y,47.518534,-122.2709399,Skipped after 3 retries
PAST SALE,July-13-2023,Townhouse,4745 35th Ave S,Seattle,WA,98118.0,799950,3,2.0,Columbia City,1670,1496.0,2016.0,,479,,Sold,,,https://www.redfin.com/WA/Seattle/4745-35th-Ave-S-98118/home/109003235,NWMLS as Distributed by MLS Grid,2069019.0,N,Y,47.5597298,-122.2890129,Skipped after 3 retries
PAST SALE,November-1-2022,Single Family Residential,9624 56th Ave S,Seattle,WA,98118.0,660000,3,2.0,Upper Rainier Beach,1770,5100.0,1919.0,,373,,Sold,,,https://www.redfin.com/WA/Seattle/9624-56th-Ave-S-98118/home/176071,NWMLS as Distributed by MLS Grid,1994009.0,N,Y,47.5160504,-122.2628397,Skipped after 3 retries
PAST SALE,,Townhouse,7036 42nd Ave S,Seattle,WA,98118.0,599950,3,2.0,,1558,1053.0,2021.0,,385,,,,,https://www.redfin.com/WA/Seattle/7036-42nd-Ave-S-98118/home/175702984,,,N,Y,47.5391988,-122.2803712,Skipped after 3 retries
PAST SALE,September-6-2023,Townhouse,9306 57th Ave S,Seattle,WA,98118.0,875000,3,4.0,Upper Rainier Beach,2590,1269.0,2018.0,,338,,Sold,,,https://www.redfin.com/WA/Seattle/9306-57th-Ave-S-98118/home/169634989,NWMLS as Distributed by MLS Grid,2134726.0,N,Y,47.5187146,-122.2613779,Skipped after 3 retries
PAST SALE,July-28-2023,Townhouse,4087 Letitia Ave S Unit B,Seattle,WA,98118.0,847000,3,3.5,Columbia City,1826,1502.0,2023.0,,464,,Sold,,,https://www.redfin.com/WA/Seattle/4087-Letitia-Ave-S-98118/unit-B/home/184866864,NWMLS as Distributed by MLS Grid,2077789.0,N,Y,47.5657984,-122.2901302,Skipped after 3 retries
PAST SALE,July-31-2023,Single Family Residential,4714 50th Ave S,Seattle,WA,98118.0,665000,2,1.5,Lakewood,1150,7200.0,1941.0,,578,,Sold,,,https://www.redfin.com/WA/Seattle/4714-50th-Ave-S-98118/home/490044,NWMLS as Distributed by MLS Grid,2101831.0,N,Y,47.5600851,-122.2704098,Skipped after 3 retries
PAST SALE,September-26-2023,Single Family Residential,5230 S Rose St,Seattle,WA,98118.0,410000,2,1.0,Rainier Beach,1750,10372.0,1945.0,,234,,Sold,,,https://www.redfin.com/WA/Seattle/5230-S-Rose-St-98118/home/185632914,NWMLS as Distributed by MLS Grid,2132583.0,N,Y,47.5297098,-122.2673514,Skipped after 3 retries
PAST SALE,May-18-2023,Condo/Co-op,5541 S Morgan St,Seattle,WA,98118.0,1510000,3,3.5,Seward Park,2499,,2023.0,,604,21.0,Sold,,,https://www.redfin.com/WA/Seattle/5541-S-Morgan-St-98118/home/184734506,NWMLS as Distributed by MLS Grid,2046246.0,N,Y,47.544064,-122.2625285,Skipped after 3 retries
PAST SALE,September-13-2023,Single Family Residential,5239 39th Ave S Unit B,Seattle,WA,98118.0,870000,3,3.5,Columbia City,1550,1807.0,2011.0,,561,,Sold,,,https://www.redfin.com/WA/Seattle/5239-39th-Ave-S-98118/unit-B/home/172639,NWMLS as Distributed by MLS Grid,2140234.0,N,Y,47.554736,-122.2837459,Skipped after 3 retries
PAST SALE,November-22-2022,Townhouse,3254 S Hudson St Unit B,Seattle,WA,98118.0,714000,3,2.0,Columbia City,1305,4400.0,2022.0,,547,,Sold,,,https://www.redfin.com/WA/Seattle/3254-S-Hudson-St-98118/unit-B/home/181877433,NWMLS as Distributed by MLS Grid,1997776.0,N,Y,47.5572715,-122.2892303,Skipped after 3 retries
PAST SALE,March-20-2023,Condo/Co-op,9500 Rainier Ave S #307,Seattle,WA,98118.0,350997,2,1.0,Rainier Beach,893,,1967.0,,393,717.0,Sold,,,https://www.redfin.com/WA/Seattle/9500-Rainier-Ave-S-98118/unit-307/home/24472,NWMLS as Distributed by MLS Grid,2031377.0,N,Y,47.5212626,-122.2612942,Skipped after 3 retries
PAST SALE,April-12-2023,Townhouse,3956 S Brandon St,Seattle,WA,98118.0,825000,3,3.5,Columbia City,1910,1813.0,2010.0,,432,,Sold,,,https://www.redfin.com/WA/Seattle/3956-S-Brandon-St-98118/home/22497439,NWMLS as Distributed by MLS Grid,2029796.0,N,Y,47.553787,-122.2813954,Skipped after 3 retries
PAST SALE,October-25-2023,Townhouse,7150 44th Ave S,Seattle,WA,98118.0,788800,3,2.5,Brighton,1660,1285.0,2023.0,,475,,Sold,,,https://www.redfin.com/WA/Seattle/7150-44th-Ave-S-98118/home/184663697,NWMLS as Distributed by MLS Grid,2159419.0,N,Y,47.5377648,-122.2774852,Skipped after 3 retries
PAST SALE,December-22-2022,Single Family Residential,4516 S Mead St,Seattle,WA,98118.0,700000,3,2.0,Hillman City,2060,3090.0,1910.0,,340,,Sold,,,https://www.redfin.com/WA/Seattle/4516-S-Mead-St-98118/home/492808,NWMLS as Distributed by MLS Grid,2005045.0,N,Y,47.5506623,-122.2764153,Skipped after 3 retries
PAST SALE,April-5-2023,Single Family Residential,8608 42nd Ave S,Seattle,WA,98118.0,600000,3,2.0,Beacon Hill,1040,6796.0,1942.0,,577,,Sold,,,https://www.redfin.com/WA/Seattle/8608-42nd-Ave-S-98118/home/480192,NWMLS as Distributed by MLS Grid,2027617.0,N,Y,47.5257322,-122.2807128,Skipped after 3 retries
PAST SALE,,Single Family Residential,9237 36th Ave S,Seattle,WA,98118.0,480000,3,1.0,,1040,7214.0,1947.0,,462,,,,,https://www.redfin.com/WA/Seattle/9237-36th-Ave-S-98118/home/479999,,,N,Y,47.5204291,-122.2875869,Skipped after 3 retries
PAST SALE,February-8-2023,Single Family Residential,3726 S Holly Park Dr,Seattle,WA,98118.0,670000,3,2.5,Holly Park,1550,2643.0,2005.0,,432,77.0,Sold,,,https://www.redfin.com/WA/Seattle/3726-S-Holly-Park-Dr-98118/home/2062623,NWMLS as Distributed by MLS Grid,2022548.0,N,Y,47.5364666,-122.2854017,Skipped after 3 retries
PAST SALE,March-2-2023,Single Family Residential,7166 44th Ave S,Seattle,WA,98118.0,699950,3,2.5,Brighton,1543,958.0,2022.0,,454,,Sold,,,https://www.redfin.com/WA/Seattle/7166-44th-Ave-S-98118/home/183383992,NWMLS as Distributed by MLS Grid,2022971.0,N,Y,47.5375674,-122.2777144,Skipped after 3 retries
PAST SALE,May-17-2023,Townhouse,9324 Renton Ave S,Seattle,WA,98118.0,569000,2,2.0,Upper Rainier Beach,1327,6741.0,2022.0,,429,,Sold,,,https://www.redfin.com/WA/Seattle/9324-Renton-Ave-S-98118/home/180400121,NWMLS as Distributed by MLS Grid,2043165.0,N,Y,47.5185242,-122.2709346,Skipped after 3 retries
PAST SALE,October-4-2023,Single Family Residential,6724 42nd Ave S,Seattle,WA,98118.0,640000,3,1.0,Brighton,2040,4720.0,1910.0,,314,,Sold,,,https://www.redfin.com/WA/Seattle/6724-42nd-Ave-S-98118/home/173473,NWMLS as Distributed by MLS Grid,2150109.0,N,Y,47.5417016,-122.2805805,Skipped after 3 retries
PAST SALE,May-17-2023,Single Family Residential,5541 S Morgan St Unit B,Seattle,WA,98118.0,790000,3,2.0,Seward Park,1068,,2023.0,,740,21.0,Sold,,,https://www.redfin.com/WA/Seattle/5541-S-Morgan-St-98118/unit-B/home/184734753,NWMLS as Distributed by MLS Grid,2046315.0,N,Y,47.544064,-122.2625285,Skipped after 3 retries
PAST SALE,June-29-2023,Single Family Residential,5543 S Morgan St Unit C,Seattle,WA,98118.0,749000,2,2.5,Seward Park,1154,1.0,2023.0,,649,16.0,Sold,,,https://www.redfin.com/WA/Seattle/5543-S-Morgan-St-98118/unit-C/home/185248245,NWMLS as Distributed by MLS Grid,2061128.0,N,Y,47.5440916,-122.2623907,Skipped after 3 retries
PAST SALE,June-20-2023,Townhouse,4720 D 38th Ave S,Seattle,WA,98118.0,849950,3,2.5,Columbia City,1575,1100.0,2023.0,,540,1.0,Sold,,,https://www.redfin.com/WA/Seattle/4720-38th-Ave-S-98118/home/185158457,NWMLS as Distributed by MLS Grid,2057730.0,N,Y,47.5601274,-122.2845618,Skipped after 3 retries
PAST SALE,February-3-2023,Single Family Residential,3237 S Kenyon St,Seattle,WA,98118.0,639950,3,2.5,Beacon Hill,1224,2500.0,2022.0,,523,,Sold,,,https://www.redfin.com/WA/Seattle/3237-S-Kenyon-St-98118/home/179957566,NWMLS as Distributed by MLS Grid,2020549.0,N,Y,47.531484,-122.289236,Skipped after 3 retries
PAST SALE,September-29-2023,Single Family Residential,3835 S Edmunds St,Seattle,WA,98118.0,835000,2,1.0,Columbia City,1690,5500.0,1905.0,,494,,Sold,,,https://www.redfin.com/WA/Seattle/3835-S-Edmunds-St-98118/home/491555,NWMLS as Distributed by MLS Grid,2139357.0,N,Y,47.5584362,-122.2839087,Skipped after 3 retries
PAST SALE,May-31-2023,Single Family Residential,8418 Island Dr S,Seattle,WA,98118.0,2540000,3,3.0,Seattle,2350,13974.0,1989.0,,1081,,Sold,,,https://www.redfin.com/WA/Seattle/8418-Island-Dr-S-98118/home/489737,NWMLS as Distributed by MLS Grid,2035886.0,N,Y,47.528234,-122.2607702,Skipped after 3 retries
PAST SALE,July-24-2023,Single Family Residential,7935 50th Ave S,Seattle,WA,98118.0,680000,3,2.0,Rainier Beach,1500,6000.0,1907.0,,453,,Sold,,,https://www.redfin.com/WA/Seattle/7935-50th-Ave-S-98118/home/174783,NWMLS as Distributed by MLS Grid,2059390.0,N,Y,47.5305435,-122.2710882,Skipped after 3 retries
PAST SALE,December-16-2022,Single Family Residential,5122 S Brighton St,Seattle,WA,98118.0,720000,3,1.5,Seward Park,2560,6150.0,1945.0,,281,,Sold,,,https://www.redfin.com/WA/Seattle/5122-S-Brighton-St-98118/home/491670,NWMLS as Distributed by MLS Grid,2004469.0,N,Y,47.541826,-122.2689079,Skipped after 3 retries
PAST SALE,August-31-2023,Condo/Co-op,9500 Rainier Ave S #209,Seattle,WA,98118.0,390000,1,1.0,Rainier Beach,661,,1967.0,,590,484.0,Sold,,,https://www.redfin.com/WA/Seattle/9500-Rainier-Ave-S-98118/unit-209/home/21707,NWMLS as Distributed by MLS Grid,2135792.0,N,Y,47.5212626,-122.2612942,Skipped after 3 retries
PAST SALE,January-20-2023,Single Family Residential,4208 S Genesee St,Seattle,WA,98118.0,552500,3,1.0,Mt Baker,1580,3600.0,1909.0,,350,,Sold,,,https://www.redfin.com/WA/Seattle/4208-S-Genesee-St-98118/home/488350,NWMLS as Distributed by MLS Grid,2011664.0,N,Y,47.5643237,-122.2802794,Skipped after 3 retries
PAST SALE,June-23-2023,Townhouse,4276 S Greenbelt Station Dr,Seattle,WA,98118.0,540000,2,1.5,Beacon Hill,1060,1149.0,2016.0,,509,240.0,Sold,,,https://www.redfin.com/WA/Seattle/4276-S-Greenbelt-Station-Dr-98118/home/109662309,NWMLS as Distributed by MLS Grid,2052585.0,N,Y,47.5247432,-122.2794769,Skipped after 3 retries
PAST SALE,September-20-2023,Townhouse,4722 C 38th Ave S,Seattle,WA,98118.0,864950,3,2.5,Columbia City,1575,692.0,2023.0,,549,1.0,Sold,,,https://www.redfin.com/WA/Seattle/4722-38th-Ave-S-98118/unit-C/home/184011058,NWMLS as Distributed by MLS Grid,2074947.0,N,Y,47.55999,-122.284375,Skipped after 3 retries
PAST SALE,April-6-2023,Townhouse,3934 B S Pearl St,Seattle,WA,98118.0,645900,2,2.5,Columbia City,1131,642.0,2022.0,,571,,Sold,,,https://www.redfin.com/WA/Seattle/3934-S-Pearl-St-98118/home/176359631,NWMLS as Distributed by MLS Grid,2030209.0,N,Y,47.5564284,-122.2818398,Skipped after 3 retries
PAST SALE,January-4-2023,Single Family Residential,4230 S Kenyon St,Seattle,WA,98118.0,689000,3,2.0,Rainier Valley,1960,4693.0,1974.0,,352,,Sold,,,https://www.redfin.com/WA/Seattle/4230-S-Kenyon-St-98118/home/480069,NWMLS as Distributed by MLS Grid,2010524.0,N,Y,47.5317659,-122.2792912,Skipped after 3 retries
PAST SALE,August-16-2023,Townhouse,4070 Letitia Ave S Unit A,Seattle,WA,98118.0,649950,2,2.5,Columbia City,1170,957.0,2009.0,,556,,Sold,,,https://www.redfin.com/WA/Seattle/4070-Letitia-Ave-S-98118/unit-A/home/25674437,NWMLS as Distributed by MLS Grid,2078256.0,N,Y,47.5662456,-122.289642,Skipped after 3 retries
PAST SALE,February-15-2023,Condo/Co-op,3932 S Edmunds St Unit A,Seattle,WA,98118.0,560000,2,2.5,Columbia City,840,916.0,2022.0,,667,260.0,Sold,,,https://www.redfin.com/WA/Seattle/3932-S-Edmunds-St-98118/unit-A/home/182027934,NWMLS as Distributed by MLS Grid,2017540.0,N,Y,47.558933,-122.2818914,Skipped after 3 retries
PAST SALE,April-18-2023,Townhouse,7512 43rd Ave S Unit B,Seattle,WA,98118.0,549950,2,2.0,Brighton,1139,630.0,2022.0,,483,1.0,Sold,,,https://www.redfin.com/WA/Seattle/7512-43rd-Ave-S-98118/unit-B/home/179480429,NWMLS as Distributed by MLS Grid,2024509.0,N,Y,47.5369853,-122.279399,Skipped after 3 retries
PAST SALE,February-28-2023,Townhouse,7322 Rainier Ave S #103,Seattle,WA,98118.0,440000,3,2.5,Seward Park,1013,,2006.0,,434,464.0,Sold,,,https://www.redfin.com/WA/Seattle/7322-Rainier-Ave-S-98118/unit-103/home/12448108,NWMLS as Distributed by MLS Grid,2021838.0,N,Y,47.5361591,-122.2698216,Skipped after 3 retries
PAST SALE,April-19-2023,Townhouse,9362 Sturtevant Ave S,Seattle,WA,98118.0,514000,2,2.0,Rainier Beach,1257,557.0,2023.0,,409,,Sold,,,https://www.redfin.com/WA/Seattle/9362-Sturtevant-Ave-S-98118/home/179849386,NWMLS as Distributed by MLS Grid,2034665.0,N,Y,47.5173633,-122.2676597,Skipped after 3 retries
PAST SALE,August-22-2023,Townhouse,4087 Letitia Ave S Unit E,Seattle,WA,98118.0,840000,3,3.5,Columbia City,1832,1504.0,2023.0,,459,,Sold,,,https://www.redfin.com/WA/Seattle/4087-Letitia-Ave-S-98118/unit-E/home/185506451,NWMLS as Distributed by MLS Grid,2071418.0,N,Y,47.5657984,-122.2901302,Skipped after 3 retries
PAST SALE,December-15-2022,Townhouse,4005 S Chicago St,Seattle,WA,98118.0,580000,3,3.5,Beacon Hill,1450,1081.0,2006.0,,400,,Sold,,,https://www.redfin.com/WA/Seattle/4005-S-Chicago-St-98118/home/2118415,NWMLS as Distributed by MLS Grid,2006962.0,N,Y,47.5324603,-122.2817592,Skipped after 3 retries
PAST SALE,May-5-2023,Single Family Residential,5330 47th Ave S,Seattle,WA,98118.0,710000,3,2.0,Seattle,1470,3965.0,1918.0,,483,,Sold,,,https://www.redfin.com/WA/Seattle/5330-47th-Ave-S-98118/home/492620,NWMLS as Distributed by MLS Grid,2036013.0,N,Y,47.5535178,-122.2742677,Skipped after 3 retries
PAST SALE,September-21-2023,Single Family Residential,3818 S Angel Pl,Seattle,WA,98118.0,732000,3,2.0,Hillman City,1400,4000.0,1927.0,,523,,Sold,,,https://www.redfin.com/WA/Seattle/3818-S-Angel-Pl-98118/home/173925,NWMLS as Distributed by MLS Grid,2135648.0,N,Y,47.544795,-122.2840607,Skipped after 3 retries
PAST SALE,August-31-2023,Townhouse,5013 37th Ave S Unit A,Seattle,WA,98118.0,650000,2,1.5,Columbia City,1303,1607.0,2007.0,,499,,Sold,,,https://www.redfin.com/WA/Seattle/5013-37th-Ave-S-98118/unit-A/home/12305655,NWMLS as Distributed by MLS Grid,2129880.0,N,Y,47.5566181,-122.2867995,Skipped after 3 retries
PAST SALE,December-9-2022,Single Family Residential,3632 S Findlay St,Seattle,WA,98118.0,590000,2,1.0,Columbia City,1410,5000.0,1918.0,,418,,Sold,,,https://www.redfin.com/WA/Seattle/3632-S-Findlay-St-98118/home/173275,NWMLS as Distributed by MLS Grid,1993176.0,N,Y,47.5521853,-122.2869274,Skipped after 3 retries
PAST SALE,February-15-2023,Condo/Co-op,3934 S Edmunds St Unit B,Seattle,WA,98118.0,550000,2,2.5,Columbia City,840,790.0,2022.0,,655,260.0,Sold,,,https://www.redfin.com/WA/Seattle/3934-S-Edmunds-St-98118/unit-B/home/181143223,NWMLS as Distributed by MLS Grid,2017543.0,N,Y,47.5588324,-122.2819699,Skipped after 3 retries
PAST SALE,October-19-2023,Townhouse,4720 E 38th Ave S,Seattle,WA,98118.0,815000,3,2.5,Columbia City,1575,845.0,2023.0,,517,1.0,Sold,,,https://www.redfin.com/WA/Seattle/4720-38th-Ave-S-98118/home/184011055,NWMLS as Distributed by MLS Grid,2141482.0,N,Y,47.5601274,-122.2845618,Skipped after 3 retries
PAST SALE,October-24-2023,Townhouse,3313 S Juneau St,Seattle,WA,98118.0,515000,2,1.5,Beacon Hill,1050,1704.0,2002.0,,490,10.0,Sold,,,https://www.redfin.com/WA/Seattle/3313-S-Juneau-St-98118/home/477759,NWMLS as Distributed by MLS Grid,2146895.0,N,Y,47.5496318,-122.2898922,Skipped after 3 retries
PAST SALE,November-9-2022,Single Family Residential,8825 41st Ave S,Seattle,WA,98118.0,400000,1,2.0,Beacon Hill,1510,4400.0,1913.0,,265,,Sold,,,https://www.redfin.com/WA/Seattle/8825-41st-Ave-S-98118/home/480018,NWMLS as Distributed by MLS Grid,1979604.0,N,Y,47.523468,-122.2816292,Skipped after 3 retries
PAST SALE,September-5-2023,Townhouse,4313 S Webster St Unit B,Seattle,WA,98118.0,570000,3,2.5,Brighton,1270,865.0,2008.0,,449,,Sold,,,https://www.redfin.com/WA/Seattle/4313-S-Webster-St-98118/unit-B/home/175082789,NWMLS as Distributed by MLS Grid,2128810.0,N,Y,47.53505,-122.2786673,Skipped after 3 retries
PAST SALE,August-2-2023,Townhouse,7514 43rd Ave S Unit B,Seattle,WA,98118.0,533000,2,2.0,Brighton,1147,1.0,2022.0,,465,45.0,Sold,,,https://www.redfin.com/WA/Seattle/7514-43rd-Ave-S-98118/unit-B/home/185383274,NWMLS as Distributed by MLS Grid,2066246.0,N,Y,47.5347817,-122.2787987,Skipped after 3 retries
PAST SALE,April-6-2023,Single Family Residential,4852 S Orcas St,Seattle,WA,98118.0,1050000,3,3.0,Seward Park,1830,5150.0,1913.0,,574,,Sold,,,https://www.redfin.com/WA/Seattle/4852-S-Orcas-St-98118/home/491701,NWMLS as Distributed by MLS Grid,2024737.0,N,Y,47.5513698,-122.2703606,Skipped after 3 retries
PAST SALE,March-9-2023,Single Family Residential,8102 50th Ave S,Seattle,WA,98118.0,570000,3,1.0,Rainier Valley,1130,6000.0,1958.0,,504,,Sold,,,https://www.redfin.com/WA/Seattle/8102-50th-Ave-S-98118/home/175039,NWMLS as Distributed by MLS Grid,2022899.0,N,Y,47.5301769,-122.2706235,Skipped after 3 retries
PAST SALE,March-10-2023,Townhouse,4730 38th Ave S,Seattle,WA,98118.0,810000,3,2.5,Columbia City,1563,1950.0,2023.0,,518,0.0,Sold,,,https://www.redfin.com/WA/Seattle/4730-38th-Ave-S-98118/home/182044506,NWMLS as Distributed by MLS Grid,1971083.0,N,Y,47.5601273,-122.2844937,Skipped after 3 retries
PAST SALE,November-10-2022,Single Family Residential,6548 32nd Ave S,Seattle,WA,98118.0,489000,3,1.5,Hillman City,1880,6194.0,1919.0,,260,,Sold,,,https://www.redfin.com/WA/Seattle/6548-32nd-Ave-S-98118/home/478889,NWMLS as Distributed by MLS Grid,1982812.0,N,Y,47.5427575,-122.2909427,Skipped after 3 retries
PAST SALE,,Townhouse,7637 46th Ave S,Seattle,WA,98118.0,530000,2,2.5,,922,4815.0,2021.0,,575,,,,,https://www.redfin.com/WA/Seattle/7637-46th-Ave-S-98118/home/174419,,,N,Y,47.5336264,-122.2757347,Skipped after 3 retries
PAST SALE,October-18-2023,Single Family Residential,3337 S Morgan St,Seattle,WA,98118.0,590000,3,1.0,Seattle,1600,10050.0,1939.0,,369,,Sold,,,https://www.redfin.com/WA/Seattle/3337-S-Morgan-St-98118/home/478982,NWMLS as Distributed by MLS Grid,2129642.0,N,Y,47.5435513,-122.2888619,Skipped after 3 retries
PAST SALE,December-13-2022,Townhouse,8636 39th Ave S #58,Seattle,WA,98118.0,810000,3,2.5,Beacon Hill,1617,,2022.0,,501,260.0,Sold,,,https://www.redfin.com/WA/Seattle/8636-39th-Ave-S-98118/unit-58/home/181531942,NWMLS as Distributed by MLS Grid,1993914.0,N,Y,47.5254603,-122.2832808,Skipped after 3 retries
PAST SALE,April-28-2023,Single Family Residential,5113 S Mead St,Seattle,WA,98118.0,545000,2,1.0,Seward Park,1010,3100.0,1913.0,,540,,Sold,,,https://www.redfin.com/WA/Seattle/5113-S-Mead-St-98118/unit-A/home/492715,NWMLS as Distributed by MLS Grid,2030028.0,N,Y,47.5502311,-122.2693606,Skipped after 3 retries
PAST SALE,April-18-2023,Single Family Residential,9667 54th Ave S,Seattle,WA,98118.0,470000,2,1.0,Upper Rainier Beach,1130,5070.0,1907.0,,416,,Sold,,,https://www.redfin.com/WA/Seattle/9667-54th-Ave-S-98118/home/176103,NWMLS as Distributed by MLS Grid,2029157.0,N,Y,47.5149815,-122.2656958,Skipped after 3 retries
PAST SALE,February-10-2023,Condo/Co-op,9500 Rainier Ave S #609,Seattle,WA,98118.0,375000,1,1.0,Rainier Beach,661,,1967.0,,567,541.0,Sold,,,https://www.redfin.com/WA/Seattle/9500-Rainier-Ave-S-98118/unit-609/home/175996204,NWMLS as Distributed by MLS Grid,2017819.0,N,Y,47.5212626,-122.2612942,Skipped after 3 retries
PAST SALE,,Townhouse,4313 S Webster St Unit D,Seattle,WA,98118.0,618800,3,2.5,,1220,1136.0,2008.0,,507,,,,,https://www.redfin.com/WA/Seattle/4313-S-Webster-St-98118/unit-D/home/17382995,,,N,Y,47.5350501,-122.2786667,Skipped after 3 retries
PAST SALE,November-18-2022,Single Family Residential,5726 S Gazelle St,Seattle,WA,98118.0,485000,3,2.0,Upper Rainier Beach,1670,5400.0,1945.0,,290,,Sold,,,https://www.redfin.com/WA/Seattle/5726-S-Gazelle-St-98118/home/176778,NWMLS as Distributed by MLS Grid,1966712.0,N,Y,47.5126648,-122.260839,Skipped after 3 retries
PAST SALE,March-9-2023,Single Family Residential,4510 S Alaska St,Seattle,WA,98118.0,709950,3,1.0,Lakewood,1740,4800.0,1953.0,,408,,Sold,,,https://www.redfin.com/WA/Seattle/4510-S-Alaska-St-98118/home/492726,NWMLS as Distributed by MLS Grid,2011826.0,N,Y,47.5607512,-122.276414,Skipped after 3 retries
PAST SALE,February-10-2023,Single Family Residential,4615 50th Ave S,Seattle,WA,98118.0,600000,1,1.5,Lakewood,2180,7200.0,1915.0,,275,,Sold,,,https://www.redfin.com/WA/Seattle/4615-50th-Ave-S-98118/home/493015,NWMLS as Distributed by MLS Grid,1972995.0,N,Y,47.5612705,-122.2712286,Skipped after 3 retries
PAST SALE,January-6-2023,Townhouse,9350 Sturtevant Ave S,Seattle,WA,98118.0,590000,3,2.0,Rainier Beach,1456,939.0,2022.0,,405,,Sold,,,https://www.redfin.com/WA/Seattle/9350-Sturtevant-Ave-S-98118/home/180521110,NWMLS as Distributed by MLS Grid,1968432.0,N,Y,47.5176251,-122.2678289,Skipped after 3 retries
PAST SALE,June-16-2023,Single Family Residential,5026 48th Ave S,Seattle,WA,98118.0,830000,3,2.0,Columbia City,1420,4448.0,1948.0,,585,,Sold,,,https://www.redfin.com/WA/Seattle/5026-48th-Ave-S-98118/home/491176,NWMLS as Distributed by MLS Grid,2040739.0,N,Y,47.5562124,-122.2723595,Skipped after 3 retries
PAST SALE,,Single Family Residential,4715 S Oregon St,Seattle,WA,98118.0,884000,2,1.5,,1350,3600.0,1953.0,,655,,,,,https://www.redfin.com/WA/Seattle/4715-S-Oregon-St-98118/home/491445,,,N,Y,47.5627712,-122.2737974,Skipped after 3 retries
PAST SALE,January-27-2023,Townhouse,9358 Sturtevant Ave S,Seattle,WA,98118.0,595000,3,2.0,Rainier Beach,1519,946.0,2022.0,,392,,Sold,,,https://www.redfin.com/WA/Seattle/9358-Sturtevant-Ave-S-98118/home/182163887,NWMLS as Distributed by MLS Grid,2004346.0,N,Y,47.5174558,-122.2675899,Skipped after 3 retries
PAST SALE,May-17-2023,Townhouse,4720 F 38th Ave S,Seattle,WA,98118.0,850000,3,2.5,Columbia City,1575,902.0,2023.0,,540,1.0,Sold,,,https://www.redfin.com/WA/Seattle/4720-F-38th-Ave-S-98118/unit-F/home/184011056,NWMLS as Distributed by MLS Grid,2027178.0,N,Y,47.5601274,-122.2845618,Skipped after 3 retries
PAST SALE,March-24-2023,Single Family Residential,5518 S Roxbury St,Seattle,WA,98118.0,575000,3,2.0,Upper Rainier Beach,2240,8550.0,1903.0,,257,,Sold,,,https://www.redfin.com/WA/Seattle/5518-S-Roxbury-St-98118/home/175779,NWMLS as Distributed by MLS Grid,2004715.0,N,Y,47.5170464,-122.2630678,Skipped after 3 retries
PAST SALE,October-12-2023,Single Family Residential,4537 35th Ave S,Seattle,WA,98118.0,302000,1,1.0,Columbia City,630,3000.0,1916.0,,479,,Sold,,,https://www.redfin.com/WA/Seattle/4537-35th-Ave-S-98118/home/172454,NWMLS as Distributed by MLS Grid,2061927.0,N,Y,47.5617616,-122.2892377,Skipped after 3 retries
PAST SALE,July-19-2023,Townhouse,7146 44th Ave S,Seattle,WA,98118.0,775000,3,2.5,Brighton,1538,1256.0,2023.0,,504,,Sold,,,https://www.redfin.com/WA/Seattle/7146-44th-Ave-S-98118/home/173698,NWMLS as Distributed by MLS Grid,2042719.0,N,Y,47.5375816,-122.2776474,Skipped after 3 retries
PAST SALE,,Single Family Residential,9682 Beacon Ave S,Seattle,WA,98118.0,800000,3,2.0,,1770,7662.0,1989.0,,452,,,,,https://www.redfin.com/WA/Seattle/9682-Beacon-Ave-S-98118/home/175155,,,N,Y,47.5147226,-122.2737165,Skipped after 3 retries
PAST SALE,November-21-2022,Townhouse,3254 S Hudson St Unit A,Seattle,WA,98118.0,699000,3,2.0,Columbia City,1279,4400.0,2022.0,,547,,Sold,,,https://www.redfin.com/WA/Seattle/3254-S-Hudson-St-98118/unit-A/home/179963151,NWMLS as Distributed by MLS Grid,1953279.0,N,Y,47.5572715,-122.2892303,Skipped after 3 retries
PAST SALE,April-28-2023,Townhouse,5057 37TH Ave S Unit A,Seattle,WA,98118.0,631000,3,3.0,Columbia City,1513,661.0,2019.0,,417,80.0,Sold,,,https://www.redfin.com/WA/Seattle/5057-37th-Ave-S-98118/unit-A/home/182782298,NWMLS as Distributed by MLS Grid,2016296.0,N,Y,47.5556009,-122.2865142,Skipped after 3 retries
PAST SALE,April-7-2023,Townhouse,9352 Sturtevant Ave S,Seattle,WA,98118.0,509000,2,2.0,Rainier Beach,1243,809.0,2023.0,,409,,Sold,,,https://www.redfin.com/WA/Seattle/9352-Sturtevant-Ave-S-98118/home/182163893,NWMLS as Distributed by MLS Grid,2004363.0,N,Y,47.5175288,-122.2676516,Skipped after 3 retries
PAST SALE,February-24-2023,Single Family Residential,3871 Rainier Ave S,Seattle,WA,98118.0,340000,2,1.0,Columbia,610,4975.0,1912.0,,557,,Sold,,,https://www.redfin.com/WA/Seattle/3871-Rainier-Ave-S-98118/home/172382,NWMLS as Distributed by MLS Grid,1982078.0,N,Y,47.5679143,-122.2896261,Skipped after 3 retries
PAST SALE,,Single Family Residential,3808 S Juneau St,Seattle,WA,98118.0,276000,2,1.0,,840,4512.0,1952.0,,329,,,,,https://www.redfin.com/WA/Seattle/3808-S-Juneau-St-98118/home/172963,,,N,Y,47.5499358,-122.2842954,Skipped after 3 retries
PAST SALE,March-3-2023,Townhouse,8638 39th Ave S,Seattle,WA,98118.0,720000,3,2.5,Beacon Hill,1617,,2022.0,,445,260.0,Sold,,,https://www.redfin.com/WA/Seattle/8638-39th-Ave-S-98118/home/181638428,NWMLS as Distributed by MLS Grid,1993901.0,N,Y,47.52527,-122.2830194,Skipped after 3 retries
PAST SALE,April-3-2023,Condo/Co-op,9500 Rainier Ave S #611,Seattle,WA,98118.0,450000,2,2.0,Rainier Beach,1100,,1967.0,,409,1122.0,Sold,,,https://www.redfin.com/WA/Seattle/9500-Rainier-Ave-S-98118/unit-611/home/16187,NWMLS as Distributed by MLS Grid,2011198.0,N,Y,47.5212626,-122.2612942,Skipped after 3 retries
PAST SALE,April-17-2023,Townhouse,8615 39th Ave S #35,Seattle,WA,98118.0,680000,3,3.0,Beacon Hill,1447,,2021.0,,470,260.0,Sold,,,https://www.redfin.com/WA/Seattle/8615-39th-Ave-S-98118/unit-35/home/175475853,NWMLS as Distributed by MLS Grid,2007232.0,N,Y,47.5255463,-122.2840176,Skipped after 3 retries
PAST SALE,February-17-2023,Townhouse,8642 39th Ave S,Seattle,WA,98118.0,710000,3,2.5,Beacon Hill,1617,,2022.0,,439,260.0,Sold,,,https://www.redfin.com/WA/Seattle/8642-39th-Ave-S-98118/home/178627435,NWMLS as Distributed by MLS Grid,1985679.0,N,Y,47.5254163,-122.283273,Skipped after 3 retries
PAST SALE,March-8-2023,Townhouse,8644 39th Ave S #54,Seattle,WA,98118.0,706000,3,2.5,Beacon Hill,1617,,2022.0,,437,260.0,Sold,,,https://www.redfin.com/WA/Seattle/8644-39th-Ave-S-98118/unit-54/home/181149134,NWMLS as Distributed by MLS Grid,1985662.0,N,Y,47.5252832,-122.2832706,Skipped after 3 retries
PAST SALE,May-11-2023,Townhouse,7144 44th Ave S,Seattle,WA,98118.0,779950,3,2.5,Brighton,1538,1386.0,2022.0,,507,,Sold,,,https://www.redfin.com/WA/Seattle/7144-44th-Ave-S-98118/home/181909740,NWMLS as Distributed by MLS Grid,1999286.0,N,Y,47.5377271,-122.2778133,Skipped after 3 retries
PAST SALE,March-23-2023,Townhouse,4722 A 38th Ave S,Seattle,WA,98118.0,869950,3,2.5,Columbia City,1575,960.0,2022.0,,552,0.0,Sold,,,https://www.redfin.com/WA/Seattle/4722-38th-Ave-S-98118/unit-A/home/185652849,NWMLS as Distributed by MLS Grid,1974768.0,N,Y,47.55999,-122.284375,Skipped after 3 retries
PAST SALE,September-25-2023,Townhouse,5057 37th Ave S Unit B,Seattle,WA,98118.0,549900,2,2.0,Columbia City,1128,674.0,2019.0,,488,22.0,Sold,,,https://www.redfin.com/WA/Seattle/5057-37th-Ave-S-98118/unit-B/home/184541433,NWMLS as Distributed by MLS Grid,2039726.0,N,Y,47.5556009,-122.2865142,Skipped after 3 retries
PAST SALE,,Single Family Residential,6400 44th Ave S,Seattle,WA,98118.0,525000,2,1.0,,1330,5011.0,1953.0,,395,,,,,https://www.redfin.com/WA/Seattle/6400-44th-Ave-S-98118/home/173251,,,N,Y,47.5449727,-122.277926,Skipped after 3 retries
PAST SALE,July-6-2023,Single Family Residential,3720 S Pilgrim St,Seattle,WA,98118.0,600000,3,3.0,Beacon Hill,2020,7305.0,1993.0,,297,,Sold,,,https://www.redfin.com/WA/Seattle/3720-S-Pilgrim-St-98118/home/480093,NWMLS as Distributed by MLS Grid,2015849.0,N,Y,47.5159153,-122.2851315,Skipped after 3 retries
PAST SALE,February-27-2023,Townhouse,8634 39th Ave S #45,Seattle,WA,98118.0,770000,3,3.0,Beacon Hill,1447,,2022.0,,532,260.0,Sold,,,https://www.redfin.com/WA/Seattle/8634-39th-Ave-S-98118/unit-45/home/179504448,NWMLS as Distributed by MLS Grid,1937930.0,N,Y,47.525475,-122.2832809,Skipped after 3 retries
PAST SALE,,Single Family Residential,,,WA,,783717,2,2.0,,1140,7502.0,2023.0,,687,,,,,https://www.redfin.com/WA/Unknown/Unknown-Unknown/home/182043052,,,N,Y,47.543884,-122.262085,Skipped after 3 retries
PAST SALE,,Single Family Residential,4529 S Orcas St,Seattle,WA,98118.0,420000,2,1.0,,750,6180.0,1904.0,,560,,,,,https://www.redfin.com/WA/Seattle/4529-S-Orcas-St-98118/home/491741,,,N,Y,47.550941182523786,-122.2763955883606,Skipped after 3 retries
PAST SALE,,Single Family Residential,9300 39th Ave S,Seattle,WA,98118.0,200000,3,1.0,,970,4400.0,1945.0,,206,,,,,https://www.redfin.com/WA/Seattle/9300-39th-Ave-S-98118/home/480415,,,N,Y,47.5196845,-122.2833347,Skipped after 3 retries
PAST SALE,,Single Family Residential,6523 43rd Ave S Unit LS,Seattle,WA,98118.0,570000,3,1.0,,1240,4600.0,1909.0,,460,,,,,https://www.redfin.com/WA/Seattle/6523-43rd-Ave-S-98118/unit-LS/home/172895,,,N,Y,47.543572,-122.2800689,Skipped after 3 retries
PAST SALE,,Condo/Co-op,3701 S Holly Park Dr,Seattle,WA,98118.0,500000,2,2.5,,1134,,2006.0,,441,,,,,https://www.redfin.com/WA/Seattle/3701-S-Holly-Park-Dr-98118/home/12092007,,,N,Y,47.5364606,-122.2864338,Skipped after 3 retries
PAST SALE,,Townhouse,3934 S Brandon St,Seattle,WA,98118.0,637500,3,2.5,,1390,1821.0,2007.0,,459,,,,,https://www.redfin.com/WA/Seattle/3934-S-Brandon-St-98118/home/18659391,,,N,Y,47.5536206,-122.2819242,Skipped after 3 retries
PAST SALE,,Single Family Residential,6020 Seward Park Ave S,Seattle,WA,98118.0,700000,2,2.0,,1520,7500.0,1952.0,,461,,,,,https://www.redfin.com/WA/Seattle/6020-Seward-Park-Ave-S-98118/home/490563,,,N,Y,47.5480208,-122.2595347,Skipped after 3 retries
PAST SALE,,Condo/Co-op,3948 S Americus St Unit A-5,Seattle,WA,98118.0,350000,2,2.0,,1124,,1982.0,,311,,,,,https://www.redfin.com/WA/Seattle/3948-S-Americus-St-98118/unit-A-5/home/7264,,,N,Y,47.5604335,-122.2814671,Skipped after 3 retries
PAST SALE,,Single Family Residential,4711 S Graham St Unit A,Seattle,WA,98118.0,470000,3,2.5,,1760,8337.0,1985.0,,267,,,,,https://www.redfin.com/WA/Seattle/4711-S-Graham-St-98118/unit-A/home/492643,,,N,Y,47.5455659,-122.2727719,Skipped after 3 retries
PAST SALE,,Single Family Residential,8659 Renton Ave S,Seattle,WA,98118.0,700000,3,3.0,,1470,5000.0,1990.0,,476,,,,,https://www.redfin.com/WA/Seattle/8659-Renton-Ave-S-98118/home/174844,,,N,Y,47.5244146,-122.2769906,Skipped after 3 retries
PAST SALE,,Townhouse,3926 S Brandon St,Seattle,WA,98118.0,620000,2,1.5,,1055,1125.0,2011.0,,588,,,,,https://www.redfin.com/WA/Seattle/3926-S-Brandon-St-98118/home/44653923,,,N,Y,47.5537018,-122.2823033,Skipped after 3 retries
PAST SALE,,Townhouse,7514 43rd Ave S Unit D,Seattle,WA,98118.0,554250,2,2.0,,1020,958.0,2022.0,,543,,,,,https://www.redfin.com/WA/Seattle/7514-43rd-Ave-S-98118/unit-D/home/183983511,,,N,Y,47.5347817,-122.2787987,Skipped after 3 retries
PAST SALE,,Townhouse,7514 43rd Ave S Unit B,Seattle,WA,98118.0,533000,2,2.0,,1020,673.0,2022.0,,523,,,,,https://www.redfin.com/WA/Seattle/7514-43rd-Ave-S-98118/unit-B/home/183983513,,,N,Y,47.5347817,-122.2787987,Skipped after 3 retries
PAST SALE,,Townhouse,4313 S Webster St,Seattle,WA,98118.0,570000,3,2.5,,1270,865.0,2008.0,,449,,,,,https://www.redfin.com/WA/Seattle/4313-S-Webster-St-98118/home/17382624,,,N,Y,47.5350501,-122.2786667,Skipped after 3 retries
PAST SALE,,Condo/Co-op,4617 S Austin St,Seattle,WA,98118.0,525000,2,1.0,,880,,,,597,,,,,https://www.redfin.com/WA/Seattle/4617-S-Austin-St-98118/home/187470194,,,N,Y,47.5344856,-122.2743126,Skipped after 3 retries
PAST SALE,,Townhouse,7146 44th Ave S,Seattle,WA,98118.0,775000,3,2.5,,1520,1256.0,2021.0,,510,,,,,https://www.redfin.com/WA/Seattle/7146-44th-Ave-S-98118/home/184004878,,,N,Y,47.5375816,-122.2776474,Skipped after 3 retries
PAST SALE,,Townhouse,9308 57th Ave S Unit A,Seattle,WA,98118.0,875000,3,4.0,,2460,1269.0,2018.0,,356,,,,,https://www.redfin.com/WA/Seattle/9308-57th-Ave-S-98118/unit-A/home/177190,,,N,Y,47.518664,-122.261387,Skipped after 3 retries
PAST SALE,,Townhouse,7512 43rd Ave S Unit A,Seattle,WA,98118.0,569950,2,2.0,,1150,943.0,2022.0,,496,,,,,https://www.redfin.com/WA/Seattle/7512-43rd-Ave-S-98118/unit-A/home/183983508,,,N,Y,47.5348078,-122.2790276,Skipped after 3 retries
PAST SALE,,Condo/Co-op,5026 Renton Ave S Unit A103,Seattle,WA,98118.0,219700,2,2.5,,1238,,,,177,,,,,https://www.redfin.com/WA/Seattle/5026-Renton-Ave-S-98118/unit-A103/home/101611100,,,N,Y,47.5561897,-122.2876337,Skipped after 3 retries
PAST SALE,,Condo/Co-op,3701 S Holly Park Dr,Seattle,WA,98118.0,509000,2,2.5,,1134,,2006.0,,449,,,,,https://www.redfin.com/WA/Seattle/3701-S-Holly-Park-Dr-98118/home/12092013,,,N,Y,47.5364606,-122.2864338,Skipped after 3 retries
PAST SALE,,Condo/Co-op,9500 Rainier Ave S #609,Seattle,WA,98118.0,375000,1,1.0,,661,,1967.0,,567,,,,,https://www.redfin.com/WA/Seattle/9500-Rainier-Ave-S-98118/unit-609/home/16185,,,N,Y,47.5212626,-122.2612942,Skipped after 3 retries
PAST SALE,,Townhouse,3220 S Edmunds St Unit A,Seattle,WA,98118.0,1010000,3,2.5,,1850,1453.0,2013.0,,546,,,,,https://www.redfin.com/WA/Seattle/3220-S-Edmunds-St-98118/unit-A/home/52428213,,,N,Y,47.5589522,-122.2905565,Skipped after 3 retries
